{'stop_id': 200, 'stop_code': '', 'stop_name': 'Longstay Caravan Park in Grounds SSO', 'stop_lat': -35.347227, 'stop_lon': 149.152829, 'zone_id': '', 'stop_url': '', 'location_type': 0, 'wheelchair_boarding': 0}
{'stop_id': 201, 'stop_code': '', 'stop_name': 'Fremantle Dr after 1st McKail Cr', 'stop_lat': -35.347043, 'stop_lon': 149.047943, 'zone_id': '', 'stop_url': '', 'location_type': 0, 'wheelchair_boarding': 0}
{'stop_id': 300, 'stop_code': '', 'stop_name': 'Ainslie PS Donaldson St', 'stop_lat': -35.27362, 'stop_lon': 149.140829, 'zone_id': '', 'stop_url': '', 'location_type': 0, 'wheelchair_boarding': 0}
{'stop_id': 401, 'stop_code': '', 'stop_name': 'MacFarlane Burnet Av after 1st Eccles Cct', 'stop_lat': -35.21606, 'stop_lon': 149.00305, 'zone_id': '', 'stop_url': '', 'location_type': 0, 'wheelchair_boarding': 0}
{'stop_id': 402, 'stop_code': '', 'stop_name': 'MacFarlane Burnet Av before Hollows Cct', 'stop_lat': -35.212836, 'stop_lon': 149.004189, 'zone_id': '', 'stop_url': '', 'location_type': 0, 'wheelchair_boarding': 0}
{'stop_id': 403, 'stop_code': '', 'stop_name': 'MacFarlane Burnet Av after Hollows Cct', 'stop_lat': -35.212665, 'stop_lon': 149.004016, 'zone_id': '', 'stop_url': '', 'location_type': 0, 'wheelchair_boarding': 0}
{'stop_id': 404, 'stop_code': '', 'stop_name': 'MacFarlane Burnet Av before De Gruchy Pl', 'stop_lat': -35.2162, 'stop_lon': 149.003141, 'zone_id': '', 'stop_url': '', 'location_type': 0, 'wheelchair_boarding': 0}
{'stop_id': 405, 'stop_code': '', 'stop_name': 'MacFarlane Burnet Av after Constance Stone St', 'stop_lat': -35.209343, 'stop_lon': 149.00322, 'zone_id': '', 'stop_url': '', 'location_type': 0, 'wheelchair_boarding': 0}
{'stop_id': 406, 'stop_code': '', 'stop_name': 'MacFarlane Burnet Av opp Constance Stone St', 'stop_lat': -35.209295, 'stop_lon': 149.002975, 'zone_id': '', 'stop_url': '', 'location_type': 0, 'wheelchair_boarding': 0}
{'stop_id': 600, 'stop_code': '', 'stop_name': "O'Hanlon Pl after Gold Creek Rd", 'stop_lat': -35.192122, 'stop_lon': 149.08597, 'zone_id': '', 'stop_url': '', 'location_type': 0, 'wheelchair_boarding': 0}
{'stop_id': 601, 'stop_code': '', 'stop_name': "O'Hanlon Pl before Gold Creek Rd", 'stop_lat': -35.192143, 'stop_lon': 149.08607, 'zone_id': '', 'stop_url': '', 'location_type': 0, 'wheelchair_boarding': 0}
{'stop_id': 1001, 'stop_code': '', 'stop_name': 'Drumston St opp MacKillop College', 'stop_lat': -35.426112, 'stop_lon': 149.091607, 'zone_id': '', 'stop_url': '', 'location_type': 0, 'wheelchair_boarding': 0}
{'stop_id': 1002, 'stop_code': '', 'stop_name': 'Mackillop College Drumston St', 'stop_lat': -35.425974, 'stop_lon': 149.091709, 'zone_id': '', 'stop_url': '', 'location_type': 0, 'wheelchair_boarding': 0}
{'stop_id': 1005, 'stop_code': '', 'stop_name': 'Noorooma St after Ellerston Av', 'stop_lat': -35.428947, 'stop_lon': 149.088168, 'zone_id': '', 'stop_url': '', 'location_type': 0, 'wheelchair_boarding': 0}
{'stop_id': 1007, 'stop_code': '', 'stop_name': 'Ellerston Av opp Isabella Plains Shops', 'stop_lat': -35.427862, 'stop_lon': 149.091027, 'zone_id': '', 'stop_url': '', 'location_type': 0, 'wheelchair_boarding': 0}
{'stop_id': 1008, 'stop_code': '', 'stop_name': 'Isabella Plains Shops Ellerston Av', 'stop_lat': -35.427477, 'stop_lon': 149.09142, 'zone_id': '', 'stop_url': '', 'location_type': 0, 'wheelchair_boarding': 0}
{'stop_id': 1009, 'stop_code': '', 'stop_name': 'Mackillop College Ellerston Av', 'stop_lat': -35.425654, 'stop_lon': 149.095483, 'zone_id': '', 'stop_url': '', 'location_type': 0, 'wheelchair_boarding': 0}
{'stop_id': 1010, 'stop_code': '', 'stop_name': 'Ellerston Av opp Mackillop College', 'stop_lat': -35.425764, 'stop_lon': 149.095466, 'zone_id': '', 'stop_url': '', 'location_type': 0, 'wheelchair_boarding': 0}
{'stop_id': 1011, 'stop_code': '', 'stop_name': 'Ellerston Av before 1st Abercorn Cr', 'stop_lat': -35.426368, 'stop_lon': 149.098008, 'zone_id': '', 'stop_url': '', 'location_type': 0, 'wheelchair_boarding': 0}
{'stop_id': 1012, 'stop_code': '', 'stop_name': 'Ellerston Av opp 2nd Abercorn Cr', 'stop_lat': -35.426603, 'stop_lon': 149.098114, 'zone_id': '', 'stop_url': '', 'location_type': 0, 'wheelchair_boarding': 0}
{'stop_id': 1013, 'stop_code': '', 'stop_name': 'Ellerston Av before 2nd Abercorn Cr', 'stop_lat': -35.428486, 'stop_lon': 149.100623, 'zone_id': '', 'stop_url': '', 'location_type': 0, 'wheelchair_boarding': 0}
{'stop_id': 1014, 'stop_code': '', 'stop_name': 'Ellerston Av before 2nd Groveland Cr', 'stop_lat': -35.428391, 'stop_lon': 149.10036, 'zone_id': '', 'stop_url': '', 'location_type': 0, 'wheelchair_boarding': 0}
{'stop_id': 1015, 'stop_code': '', 'stop_name': 'Ellerston Av before Ashley Dr', 'stop_lat': -35.42879, 'stop_lon': 149.102889, 'zone_id': '', 'stop_url': '', 'location_type': 0, 'wheelchair_boarding': 0}
{'stop_id': 1016, 'stop_code': '', 'stop_name': 'Ellerston Av after Ashley Dr', 'stop_lat': -35.428922, 'stop_lon': 149.102838, 'zone_id': '', 'stop_url': '', 'location_type': 0, 'wheelchair_boarding': 0}
{'stop_id': 1017, 'stop_code': '', 'stop_name': 'Calwell Shops Webber Cr', 'stop_lat': -35.435094, 'stop_lon': 149.113745, 'zone_id': '', 'stop_url': '', 'location_type': 0, 'wheelchair_boarding': 0}
{'stop_id': 1018, 'stop_code': '', 'stop_name': 'Boddington Cr after Bacchus Cct', 'stop_lat': -35.379387, 'stop_lon': 149.054883, 'zone_id': '', 'stop_url': '', 'location_type': 0, 'wheelchair_boarding': 0}
{'stop_id': 1019, 'stop_code': '', 'stop_name': 'Casey Cr before Carpenter Cl', 'stop_lat': -35.436661, 'stop_lon': 149.11129, 'zone_id': '', 'stop_url': '', 'location_type': 0, 'wheelchair_boarding': 0}
{'stop_id': 1020, 'stop_code': '', 'stop_name': 'Casey Cr opp Carpenter Cl', 'stop_lat': -35.436859, 'stop_lon': 149.110846, 'zone_id': '', 'stop_url': '', 'location_type': 0, 'wheelchair_boarding': 0}
{'stop_id': 1027, 'stop_code': '', 'stop_name': 'Duggan St after Downard St', 'stop_lat': -35.439864, 'stop_lon': 149.098624, 'zone_id': '', 'stop_url': '', 'location_type': 0, 'wheelchair_boarding': 0}
{'stop_id': 1028, 'stop_code': '', 'stop_name': 'Duggan St after Beckett St', 'stop_lat': -35.439836, 'stop_lon': 149.098479, 'zone_id': '', 'stop_url': '', 'location_type': 0, 'wheelchair_boarding': 0}
{'stop_id': 1029, 'stop_code': '', 'stop_name': 'Duggan St before 1st Pennington Cr', 'stop_lat': -35.441602, 'stop_lon': 149.100907, 'zone_id': '', 'stop_url': '', 'location_type': 0, 'wheelchair_boarding': 0}
{'stop_id': 1030, 'stop_code': '', 'stop_name': 'Duggan St before 2nd Andrew Cr', 'stop_lat': -35.441603, 'stop_lon': 149.101116, 'zone_id': '', 'stop_url': '', 'location_type': 0, 'wheelchair_boarding': 0}
{'stop_id': 1031, 'stop_code': '', 'stop_name': 'Tharwa Dr after Duggan St', 'stop_lat': -35.444823, 'stop_lon': 149.10572, 'zone_id': '', 'stop_url': '', 'location_type': 0, 'wheelchair_boarding': 0}
{'stop_id': 1032, 'stop_code': '', 'stop_name': 'Tharwa Dr before Duggan St', 'stop_lat': -35.444455, 'stop_lon': 149.103996, 'zone_id': '', 'stop_url': '', 'location_type': 0, 'wheelchair_boarding': 0}
{'stop_id': 1033, 'stop_code': '', 'stop_name': 'Lawrence Wackett Cr opp Theodore PS', 'stop_lat': -35.447275, 'stop_lon': 149.124613, 'zone_id': '', 'stop_url': '', 'location_type': 0, 'wheelchair_boarding': 0}
{'stop_id': 1034, 'stop_code': '', 'stop_name': 'Theodore PS Lawrence Wackett Cr', 'stop_lat': -35.447346, 'stop_lon': 149.124487, 'zone_id': '', 'stop_url': '', 'location_type': 0, 'wheelchair_boarding': 0}
{'stop_id': 1035, 'stop_code': '', 'stop_name': 'Lawrence Wackett Cr after 1st Burdett Cr', 'stop_lat': -35.449867, 'stop_lon': 149.122566, 'zone_id': '', 'stop_url': '', 'location_type': 0, 'wheelchair_boarding': 0}
{'stop_id': 1036, 'stop_code': '', 'stop_name': 'Lawrence Wackett Cr before Chippindall Cct', 'stop_lat': -35.450002, 'stop_lon': 149.122491, 'zone_id': '', 'stop_url': '', 'location_type': 0, 'wheelchair_boarding': 0}
{'stop_id': 1037, 'stop_code': '', 'stop_name': 'Chippindall Cct opp Goldfinch Cct', 'stop_lat': -35.450823, 'stop_lon': 149.120097, 'zone_id': '', 'stop_url': '', 'location_type': 0, 'wheelchair_boarding': 0}
{'stop_id': 1038, 'stop_code': '', 'stop_name': 'Chippindall Cct after Latchford St', 'stop_lat': -35.45072, 'stop_lon': 149.120304, 'zone_id': '', 'stop_url': '', 'location_type': 0, 'wheelchair_boarding': 0}
{'stop_id': 1044, 'stop_code': '', 'stop_name': 'Hurtle Av after 1st Noarlunga Cr', 'stop_lat': -35.434802, 'stop_lon': 149.086149, 'zone_id': '', 'stop_url': '', 'location_type': 0, 'wheelchair_boarding': 0}
{'stop_id': 1045, 'stop_code': '', 'stop_name': 'Hurtle Av opp 2nd Noarlunga Cr', 'stop_lat': -35.434726, 'stop_lon': 149.085969, 'zone_id': '', 'stop_url': '', 'location_type': 0, 'wheelchair_boarding': 0}
{'stop_id': 1046, 'stop_code': '', 'stop_name': 'Barr Smith Av after Salas St', 'stop_lat': -35.42673, 'stop_lon': 149.074178, 'zone_id': '', 'stop_url': '', 'location_type': 0, 'wheelchair_boarding': 0}
{'stop_id': 1047, 'stop_code': '', 'stop_name': 'Barr Smith Av after Don Dunstan Dr', 'stop_lat': -35.426899, 'stop_lon': 149.074185, 'zone_id': '', 'stop_url': '', 'location_type': 0, 'wheelchair_boarding': 0}
{'stop_id': 1052, 'stop_code': '', 'stop_name': 'Barr Smith Av opp Hurtle Av', 'stop_lat': -35.431101, 'stop_lon': 149.080008, 'zone_id': '', 'stop_url': '', 'location_type': 0, 'wheelchair_boarding': 0}
{'stop_id': 1053, 'stop_code': '', 'stop_name': 'Barr Smith Av after Hurtle Av', 'stop_lat': -35.431263, 'stop_lon': 149.08006, 'zone_id': '', 'stop_url': '', 'location_type': 0, 'wheelchair_boarding': 0}
{'stop_id': 1054, 'stop_code': '', 'stop_name': 'Hurtle Av opp Ebenezer St', 'stop_lat': -35.434405, 'stop_lon': 149.083587, 'zone_id': '', 'stop_url': '', 'location_type': 0, 'wheelchair_boarding': 0}
{'stop_id': 1055, 'stop_code': '', 'stop_name': 'Hurtle Av after Ebenezer St', 'stop_lat': -35.433937, 'stop_lon': 149.082881, 'zone_id': '', 'stop_url': '', 'location_type': 0, 'wheelchair_boarding': 0}
{'stop_id': 1056, 'stop_code': '', 'stop_name': 'Hurtle Av opp Bonython PS', 'stop_lat': -35.432126, 'stop_lon': 149.08231, 'zone_id': '', 'stop_url': '', 'location_type': 0, 'wheelchair_boarding': 0}
{'stop_id': 1057, 'stop_code': '', 'stop_name': 'Bonython PS Hurtle Av', 'stop_lat': -35.431441, 'stop_lon': 149.082295, 'zone_id': '', 'stop_url': '', 'location_type': 0, 'wheelchair_boarding': 0}
{'stop_id': 1059, 'stop_code': '', 'stop_name': 'Homeworld Soward Way', 'stop_lat': -35.418682, 'stop_lon': 149.067883, 'zone_id': '', 'stop_url': '', 'location_type': 0, 'wheelchair_boarding': 0}
{'stop_id': 1060, 'stop_code': '', 'stop_name': 'Boddington Cr before Reynell Pl', 'stop_lat': -35.379517, 'stop_lon': 149.055117, 'zone_id': '', 'stop_url': '', 'location_type': 0, 'wheelchair_boarding': 0}
{'stop_id': 1061, 'stop_code': '', 'stop_name': 'Soward Way after Anketell St', 'stop_lat': -35.417271, 'stop_lon': 149.070695, 'zone_id': '', 'stop_url': '', 'location_type': 0, 'wheelchair_boarding': 0}
{'stop_id': 1062, 'stop_code': '', 'stop_name': 'Soward Way before Anketell St', 'stop_lat': -35.417379, 'stop_lon': 149.070745, 'zone_id': '', 'stop_url': '', 'location_type': 0, 'wheelchair_boarding': 0}
{'stop_id': 1063, 'stop_code': '', 'stop_name': 'Tuggeranong Bus Depot Scollay St', 'stop_lat': -35.422657, 'stop_lon': 149.06973, 'zone_id': '', 'stop_url': '', 'location_type': 0, 'wheelchair_boarding': 0}
{'stop_id': 1064, 'stop_code': '', 'stop_name': 'Scollay St opp Tuggeranong Bus Depot', 'stop_lat': -35.421808, 'stop_lon': 149.069227, 'zone_id': '', 'stop_url': '', 'location_type': 0, 'wheelchair_boarding': 0}
{'stop_id': 1065, 'stop_code': '', 'stop_name': 'Anketell St before Oakden St', 'stop_lat': -35.422697, 'stop_lon': 149.072912, 'zone_id': '', 'stop_url': '', 'location_type': 0, 'wheelchair_boarding': 0}
{'stop_id': 1066, 'stop_code': '', 'stop_name': 'Anketell St after Oakden St', 'stop_lat': -35.422524, 'stop_lon': 149.072986, 'zone_id': '', 'stop_url': '', 'location_type': 0, 'wheelchair_boarding': 0}
{'stop_id': 1067, 'stop_code': '', 'stop_name': 'Anketell St opp Tuggeranong Square', 'stop_lat': -35.419798, 'stop_lon': 149.070847, 'zone_id': '', 'stop_url': '', 'location_type': 0, 'wheelchair_boarding': 0}
{'stop_id': 1068, 'stop_code': '', 'stop_name': 'Tuggeranong Square Anketell St', 'stop_lat': -35.419976, 'stop_lon': 149.070832, 'zone_id': '', 'stop_url': '', 'location_type': 0, 'wheelchair_boarding': 0}
{'stop_id': 1069, 'stop_code': '', 'stop_name': 'Ellerston Av before Noorooma St', 'stop_lat': -35.430392, 'stop_lon': 149.08816, 'zone_id': '', 'stop_url': '', 'location_type': 0, 'wheelchair_boarding': 0}
{'stop_id': 1070, 'stop_code': '', 'stop_name': 'Ellerston Av opp Noorooma St', 'stop_lat': -35.430127, 'stop_lon': 149.088257, 'zone_id': '', 'stop_url': '', 'location_type': 0, 'wheelchair_boarding': 0}
{'stop_id': 1071, 'stop_code': '', 'stop_name': 'Ellerston Av after Keverstone Cct', 'stop_lat': -35.431594, 'stop_lon': 149.088799, 'zone_id': '', 'stop_url': '', 'location_type': 0, 'wheelchair_boarding': 0}
{'stop_id': 1072, 'stop_code': '', 'stop_name': 'Ellerston Av opp Keverstone Cct', 'stop_lat': -35.431555, 'stop_lon': 149.088905, 'zone_id': '', 'stop_url': '', 'location_type': 0, 'wheelchair_boarding': 0}
{'stop_id': 1073, 'stop_code': '', 'stop_name': 'Ellerston Av after Jasper Cl', 'stop_lat': -35.431903, 'stop_lon': 149.092371, 'zone_id': '', 'stop_url': '', 'location_type': 0, 'wheelchair_boarding': 0}
{'stop_id': 1074, 'stop_code': '', 'stop_name': 'Ellerston Av before 2nd Kadina Cr', 'stop_lat': -35.431674, 'stop_lon': 149.092063, 'zone_id': '', 'stop_url': '', 'location_type': 0, 'wheelchair_boarding': 0}
{'stop_id': 1075, 'stop_code': '', 'stop_name': 'Ellerston Av after Johnston Dr', 'stop_lat': -35.433965, 'stop_lon': 149.094672, 'zone_id': '', 'stop_url': '', 'location_type': 0, 'wheelchair_boarding': 0}
{'stop_id': 1076, 'stop_code': '', 'stop_name': 'Ellerston Av before Johnson Dr', 'stop_lat': -35.433781, 'stop_lon': 149.094651, 'zone_id': '', 'stop_url': '', 'location_type': 0, 'wheelchair_boarding': 0}
{'stop_id': 1077, 'stop_code': '', 'stop_name': 'Outtrim Av before Duggan St', 'stop_lat': -35.435753, 'stop_lon': 149.098665, 'zone_id': '', 'stop_url': '', 'location_type': 0, 'wheelchair_boarding': 0}
{'stop_id': 1078, 'stop_code': '', 'stop_name': 'Outtrim Av opp Duggan St', 'stop_lat': -35.435688, 'stop_lon': 149.09841, 'zone_id': '', 'stop_url': '', 'location_type': 0, 'wheelchair_boarding': 0}
{'stop_id': 1079, 'stop_code': '', 'stop_name': 'Outtrim Av before 2nd Carter Cr', 'stop_lat': -35.435899, 'stop_lon': 149.102015, 'zone_id': '', 'stop_url': '', 'location_type': 0, 'wheelchair_boarding': 0}
{'stop_id': 1080, 'stop_code': '', 'stop_name': 'Outtrim Av after Gurr St', 'stop_lat': -35.435979, 'stop_lon': 149.101939, 'zone_id': '', 'stop_url': '', 'location_type': 0, 'wheelchair_boarding': 0}
{'stop_id': 1081, 'stop_code': '', 'stop_name': 'Outtrim Av after 2nd Carter Cr', 'stop_lat': -35.436062, 'stop_lon': 149.104675, 'zone_id': '', 'stop_url': '', 'location_type': 0, 'wheelchair_boarding': 0}
{'stop_id': 1082, 'stop_code': '', 'stop_name': 'Outtrim Av before Gurr St', 'stop_lat': -35.436087, 'stop_lon': 149.104832, 'zone_id': '', 'stop_url': '', 'location_type': 0, 'wheelchair_boarding': 0}
{'stop_id': 1083, 'stop_code': '', 'stop_name': 'Outtrim Av after Costello Cct', 'stop_lat': -35.435623, 'stop_lon': 149.109478, 'zone_id': '', 'stop_url': '', 'location_type': 0, 'wheelchair_boarding': 0}
{'stop_id': 1084, 'stop_code': '', 'stop_name': 'Outtrim Av after Mountain Cct', 'stop_lat': -35.435705, 'stop_lon': 149.109488, 'zone_id': '', 'stop_url': '', 'location_type': 0, 'wheelchair_boarding': 0}
{'stop_id': 1085, 'stop_code': '', 'stop_name': 'Calwell PS Casey Cr', 'stop_lat': -35.438693, 'stop_lon': 149.110352, 'zone_id': '', 'stop_url': '', 'location_type': 0, 'wheelchair_boarding': 0}
{'stop_id': 1086, 'stop_code': '', 'stop_name': 'Casey Cr opp Calwell PS', 'stop_lat': -35.43858, 'stop_lon': 149.110412, 'zone_id': '', 'stop_url': '', 'location_type': 0, 'wheelchair_boarding': 0}
{'stop_id': 1089, 'stop_code': '', 'stop_name': "Casey Cr after O'Connor Cct", 'stop_lat': -35.440019, 'stop_lon': 149.113137, 'zone_id': '', 'stop_url': '', 'location_type': 0, 'wheelchair_boarding': 0}
{'stop_id': 1090, 'stop_code': '', 'stop_name': "Casey Cr opp O'Connor Cct", 'stop_lat': -35.439958, 'stop_lon': 149.113233, 'zone_id': '', 'stop_url': '', 'location_type': 0, 'wheelchair_boarding': 0}
{'stop_id': 1091, 'stop_code': '', 'stop_name': 'Calwell Park & Ride Johnson Dr', 'stop_lat': -35.433499, 'stop_lon': 149.111284, 'zone_id': '', 'stop_url': '', 'location_type': 0, 'wheelchair_boarding': 0}
{'stop_id': 1092, 'stop_code': '', 'stop_name': 'Casey Cr opp Calwell HS', 'stop_lat': -35.441119, 'stop_lon': 149.115918, 'zone_id': '', 'stop_url': '', 'location_type': 0, 'wheelchair_boarding': 0}
{'stop_id': 1093, 'stop_code': '', 'stop_name': 'Johnson Dr Opp Calwell Park & Ride', 'stop_lat': -35.43321, 'stop_lon': 149.112594, 'zone_id': '', 'stop_url': '', 'location_type': 0, 'wheelchair_boarding': 0}
{'stop_id': 1094, 'stop_code': '', 'stop_name': 'St Francis of Assisi PS Casey Cr', 'stop_lat': -35.441065, 'stop_lon': 149.118881, 'zone_id': '', 'stop_url': '', 'location_type': 0, 'wheelchair_boarding': 0}
{'stop_id': 1095, 'stop_code': '', 'stop_name': 'Were St before Tharwa Dr', 'stop_lat': -35.440384, 'stop_lon': 149.12072, 'zone_id': '', 'stop_url': '', 'location_type': 0, 'wheelchair_boarding': 0}
{'stop_id': 1096, 'stop_code': '', 'stop_name': 'Were St after Tharwa Dr', 'stop_lat': -35.440535, 'stop_lon': 149.120676, 'zone_id': '', 'stop_url': '', 'location_type': 0, 'wheelchair_boarding': 0}
{'stop_id': 1109, 'stop_code': '', 'stop_name': 'Louis Loder St at 1st Vonwiller Cr', 'stop_lat': -35.445646, 'stop_lon': 149.116782, 'zone_id': '', 'stop_url': '', 'location_type': 0, 'wheelchair_boarding': 0}
{'stop_id': 1110, 'stop_code': '', 'stop_name': 'Louis Loder St before 2nd Hartung Cr', 'stop_lat': -35.445576, 'stop_lon': 149.11667, 'zone_id': '', 'stop_url': '', 'location_type': 0, 'wheelchair_boarding': 0}
{'stop_id': 1111, 'stop_code': '', 'stop_name': 'Louis Loder St after 2nd Mehaffey Cr', 'stop_lat': -35.446537, 'stop_lon': 149.114521, 'zone_id': '', 'stop_url': '', 'location_type': 0, 'wheelchair_boarding': 0}
{'stop_id': 1112, 'stop_code': '', 'stop_name': 'Louis Loder St opp 1st Hartung Cr', 'stop_lat': -35.446523, 'stop_lon': 149.114891, 'zone_id': '', 'stop_url': '', 'location_type': 0, 'wheelchair_boarding': 0}
{'stop_id': 1113, 'stop_code': '', 'stop_name': 'Louis Loder St after 1st Cochrane Cr', 'stop_lat': -35.44801, 'stop_lon': 149.115224, 'zone_id': '', 'stop_url': '', 'location_type': 0, 'wheelchair_boarding': 0}
{'stop_id': 1114, 'stop_code': '', 'stop_name': '44 Louis Loder St', 'stop_lat': -35.448128, 'stop_lon': 149.115262, 'zone_id': '', 'stop_url': '', 'location_type': 0, 'wheelchair_boarding': 0}
{'stop_id': 1115, 'stop_code': '', 'stop_name': 'Louis Loder St before 2nd Vonwiller Cr', 'stop_lat': -35.450545, 'stop_lon': 149.117412, 'zone_id': '', 'stop_url': '', 'location_type': 0, 'wheelchair_boarding': 0}
{'stop_id': 1116, 'stop_code': '', 'stop_name': 'Louis Loder St at 2nd Conlon Cr', 'stop_lat': -35.450595, 'stop_lon': 149.117269, 'zone_id': '', 'stop_url': '', 'location_type': 0, 'wheelchair_boarding': 0}
{'stop_id': 1117, 'stop_code': '', 'stop_name': 'Clift Cr before Johnson Dr', 'stop_lat': -35.43325, 'stop_lon': 149.118429, 'zone_id': '', 'stop_url': '', 'location_type': 0, 'wheelchair_boarding': 0}
{'stop_id': 1118, 'stop_code': '', 'stop_name': 'Clift Cr after Johnson Dr', 'stop_lat': -35.433112, 'stop_lon': 149.118228, 'zone_id': '', 'stop_url': '', 'location_type': 0, 'wheelchair_boarding': 0}
{'stop_id': 1119, 'stop_code': '', 'stop_name': 'Clift Cr after 2nd Chauncy Cr', 'stop_lat': -35.431157, 'stop_lon': 149.119171, 'zone_id': '', 'stop_url': '', 'location_type': 0, 'wheelchair_boarding': 0}
{'stop_id': 1120, 'stop_code': '', 'stop_name': 'Clift Cr after 1st Fullerton Cr', 'stop_lat': -35.431117, 'stop_lon': 149.119349, 'zone_id': '', 'stop_url': '', 'location_type': 0, 'wheelchair_boarding': 0}
{'stop_id': 1121, 'stop_code': '', 'stop_name': 'Deamer Cr before Meeson St', 'stop_lat': -35.429241, 'stop_lon': 149.121439, 'zone_id': '', 'stop_url': '', 'location_type': 0, 'wheelchair_boarding': 0}
{'stop_id': 1122, 'stop_code': '', 'stop_name': 'Deamer Cr before Clift Cr', 'stop_lat': -35.429355, 'stop_lon': 149.120942, 'zone_id': '', 'stop_url': '', 'location_type': 0, 'wheelchair_boarding': 0}
{'stop_id': 1123, 'stop_code': '', 'stop_name': 'Deamer Cr before 2nd Twamley Cr', 'stop_lat': -35.430849, 'stop_lon': 149.123538, 'zone_id': '', 'stop_url': '', 'location_type': 0, 'wheelchair_boarding': 0}
{'stop_id': 1124, 'stop_code': '', 'stop_name': 'Deamer Cr opp 1st Twamley Cr', 'stop_lat': -35.430915, 'stop_lon': 149.123421, 'zone_id': '', 'stop_url': '', 'location_type': 0, 'wheelchair_boarding': 0}
{'stop_id': 1125, 'stop_code': '', 'stop_name': '69 Deamer Cr', 'stop_lat': -35.431494, 'stop_lon': 149.127065, 'zone_id': '', 'stop_url': '', 'location_type': 0, 'wheelchair_boarding': 0}
{'stop_id': 1126, 'stop_code': '', 'stop_name': 'Deamer Cr opp 69', 'stop_lat': -35.431724, 'stop_lon': 149.126983, 'zone_id': '', 'stop_url': '', 'location_type': 0, 'wheelchair_boarding': 0}
{'stop_id': 1127, 'stop_code': '', 'stop_name': 'Deamer Cr opp 1st Nina Jones Cr', 'stop_lat': -35.429424, 'stop_lon': 149.128794, 'zone_id': '', 'stop_url': '', 'location_type': 0, 'wheelchair_boarding': 0}
{'stop_id': 1128, 'stop_code': '', 'stop_name': 'Deamer Cr after 2nd Nina Jones Cr', 'stop_lat': -35.429786, 'stop_lon': 149.128673, 'zone_id': '', 'stop_url': '', 'location_type': 0, 'wheelchair_boarding': 0}
{'stop_id': 1129, 'stop_code': '', 'stop_name': 'Deamer Cr after Heagney Cr', 'stop_lat': -35.427319, 'stop_lon': 149.129802, 'zone_id': '', 'stop_url': '', 'location_type': 0, 'wheelchair_boarding': 0}
{'stop_id': 1130, 'stop_code': '', 'stop_name': 'Deamer Cr before Heagney Cr', 'stop_lat': -35.427189, 'stop_lon': 149.129613, 'zone_id': '', 'stop_url': '', 'location_type': 0, 'wheelchair_boarding': 0}
{'stop_id': 1131, 'stop_code': '', 'stop_name': 'Heagney Cr before Deamer Cr', 'stop_lat': -35.426486, 'stop_lon': 149.130996, 'zone_id': '', 'stop_url': '', 'location_type': 0, 'wheelchair_boarding': 0}
{'stop_id': 1132, 'stop_code': '', 'stop_name': 'Heagney Cr opp Deamer Cr', 'stop_lat': -35.426567, 'stop_lon': 149.130245, 'zone_id': '', 'stop_url': '', 'location_type': 0, 'wheelchair_boarding': 0}
{'stop_id': 1133, 'stop_code': '', 'stop_name': 'Heagney Cr before 2nd Couchman Cr', 'stop_lat': -35.424588, 'stop_lon': 149.133212, 'zone_id': '', 'stop_url': '', 'location_type': 0, 'wheelchair_boarding': 0}
{'stop_id': 1134, 'stop_code': '', 'stop_name': 'Heagney Cr before Enid Lorimer Cct', 'stop_lat': -35.424695, 'stop_lon': 149.133027, 'zone_id': '', 'stop_url': '', 'location_type': 0, 'wheelchair_boarding': 0}
{'stop_id': 1135, 'stop_code': '', 'stop_name': 'Heagney Cr before 1st Couchman Cr', 'stop_lat': -35.423045, 'stop_lon': 149.13492, 'zone_id': '', 'stop_url': '', 'location_type': 0, 'wheelchair_boarding': 0}
{'stop_id': 1136, 'stop_code': '', 'stop_name': 'Heagney Cr after Enid Lorimer Cct', 'stop_lat': -35.423025, 'stop_lon': 149.13453, 'zone_id': '', 'stop_url': '', 'location_type': 0, 'wheelchair_boarding': 0}
{'stop_id': 1137, 'stop_code': '', 'stop_name': 'Heagney Cr after 1st Henry Melville Cr', 'stop_lat': -35.421379, 'stop_lon': 149.135994, 'zone_id': '', 'stop_url': '', 'location_type': 0, 'wheelchair_boarding': 0}
{'stop_id': 1138, 'stop_code': '', 'stop_name': 'Heagney Cr after 2nd Emily Bulcock Cr', 'stop_lat': -35.420927, 'stop_lon': 149.136018, 'zone_id': '', 'stop_url': '', 'location_type': 0, 'wheelchair_boarding': 0}
{'stop_id': 1139, 'stop_code': '', 'stop_name': 'Heagney Cr opp Gilmore PS', 'stop_lat': -35.419229, 'stop_lon': 149.136097, 'zone_id': '', 'stop_url': '', 'location_type': 0, 'wheelchair_boarding': 0}
{'stop_id': 1140, 'stop_code': '', 'stop_name': 'Gilmore PS Heagney Cr', 'stop_lat': -35.419093, 'stop_lon': 149.135985, 'zone_id': '', 'stop_url': '', 'location_type': 0, 'wheelchair_boarding': 0}
{'stop_id': 1143, 'stop_code': '', 'stop_name': 'Proctor St opp Maclean St', 'stop_lat': -35.415211, 'stop_lon': 149.12515, 'zone_id': '', 'stop_url': '', 'location_type': 0, 'wheelchair_boarding': 0}
{'stop_id': 1144, 'stop_code': '', 'stop_name': 'Proctor St after MacLean St', 'stop_lat': -35.415327, 'stop_lon': 149.125257, 'zone_id': '', 'stop_url': '', 'location_type': 0, 'wheelchair_boarding': 0}
{'stop_id': 1147, 'stop_code': '', 'stop_name': 'Chisholm Shops Benham St', 'stop_lat': -35.414421, 'stop_lon': 149.129066, 'zone_id': '', 'stop_url': '', 'location_type': 0, 'wheelchair_boarding': 0}
{'stop_id': 1148, 'stop_code': '', 'stop_name': 'Benham St opp Chisholm Shops', 'stop_lat': -35.414484, 'stop_lon': 149.129233, 'zone_id': '', 'stop_url': '', 'location_type': 0, 'wheelchair_boarding': 0}
{'stop_id': 1149, 'stop_code': '', 'stop_name': 'Coyne St before Carson St', 'stop_lat': -35.409005, 'stop_lon': 149.127953, 'zone_id': '', 'stop_url': '', 'location_type': 0, 'wheelchair_boarding': 0}
{'stop_id': 1150, 'stop_code': '', 'stop_name': 'Coyne St opp Carson St', 'stop_lat': -35.409158, 'stop_lon': 149.127772, 'zone_id': '', 'stop_url': '', 'location_type': 0, 'wheelchair_boarding': 0}
{'stop_id': 1151, 'stop_code': '', 'stop_name': '19 Coyne St', 'stop_lat': -35.409167, 'stop_lon': 149.123106, 'zone_id': '', 'stop_url': '', 'location_type': 0, 'wheelchair_boarding': 0}
{'stop_id': 1152, 'stop_code': '', 'stop_name': 'Coyne St opp 19', 'stop_lat': -35.409226, 'stop_lon': 149.122726, 'zone_id': '', 'stop_url': '', 'location_type': 0, 'wheelchair_boarding': 0}
{'stop_id': 1153, 'stop_code': '', 'stop_name': 'Bugden Av before 2nd Larcombe Cr', 'stop_lat': -35.406964, 'stop_lon': 149.120433, 'zone_id': '', 'stop_url': '', 'location_type': 0, 'wheelchair_boarding': 0}
{'stop_id': 1154, 'stop_code': '', 'stop_name': 'Bugden Av before Coyne St', 'stop_lat': -35.406757, 'stop_lon': 149.120472, 'zone_id': '', 'stop_url': '', 'location_type': 0, 'wheelchair_boarding': 0}
{'stop_id': 1155, 'stop_code': '', 'stop_name': 'Bugden Av before 2nd Demaine Cr', 'stop_lat': -35.404229, 'stop_lon': 149.122455, 'zone_id': '', 'stop_url': '', 'location_type': 0, 'wheelchair_boarding': 0}
{'stop_id': 1156, 'stop_code': '', 'stop_name': 'Bugden Av after Fihelly St', 'stop_lat': -35.404353, 'stop_lon': 149.121963, 'zone_id': '', 'stop_url': '', 'location_type': 0, 'wheelchair_boarding': 0}
{'stop_id': 1157, 'stop_code': '', 'stop_name': 'Bugden Av before 1st Mullan St', 'stop_lat': -35.402395, 'stop_lon': 149.124135, 'zone_id': '', 'stop_url': '', 'location_type': 0, 'wheelchair_boarding': 0}
{'stop_id': 1158, 'stop_code': '', 'stop_name': 'Bugden Av opp 2nd Mullan St', 'stop_lat': -35.401231, 'stop_lon': 149.123513, 'zone_id': '', 'stop_url': '', 'location_type': 0, 'wheelchair_boarding': 0}
{'stop_id': 1159, 'stop_code': '', 'stop_name': 'Bugden Av after 2nd Mullan St', 'stop_lat': -35.398518, 'stop_lon': 149.122122, 'zone_id': '', 'stop_url': '', 'location_type': 0, 'wheelchair_boarding': 0}
{'stop_id': 1160, 'stop_code': '', 'stop_name': 'Bugden Av opp 309', 'stop_lat': -35.398621, 'stop_lon': 149.122257, 'zone_id': '', 'stop_url': '', 'location_type': 0, 'wheelchair_boarding': 0}
{'stop_id': 1161, 'stop_code': '', 'stop_name': 'Bugden Av after 1st Dash Cr', 'stop_lat': -35.400242, 'stop_lon': 149.115685, 'zone_id': '', 'stop_url': '', 'location_type': 0, 'wheelchair_boarding': 0}
{'stop_id': 1162, 'stop_code': '', 'stop_name': 'Bugden Av after Partridge St', 'stop_lat': -35.401436, 'stop_lon': 149.114272, 'zone_id': '', 'stop_url': '', 'location_type': 0, 'wheelchair_boarding': 0}
{'stop_id': 1163, 'stop_code': '', 'stop_name': 'Bugden Av opp 2nd Maughan Cr', 'stop_lat': -35.40132, 'stop_lon': 149.112769, 'zone_id': '', 'stop_url': '', 'location_type': 0, 'wheelchair_boarding': 0}
{'stop_id': 1164, 'stop_code': '', 'stop_name': 'Bugden Av before 2nd Maughan Cr', 'stop_lat': -35.401832, 'stop_lon': 149.110301, 'zone_id': '', 'stop_url': '', 'location_type': 0, 'wheelchair_boarding': 0}
{'stop_id': 1165, 'stop_code': '', 'stop_name': 'Bugden Av after 1st Appel Cr', 'stop_lat': -35.401708, 'stop_lon': 149.110045, 'zone_id': '', 'stop_url': '', 'location_type': 0, 'wheelchair_boarding': 0}
{'stop_id': 1166, 'stop_code': '', 'stop_name': 'Bugden Av after Sternberg Cr', 'stop_lat': -35.40265, 'stop_lon': 149.107483, 'zone_id': '', 'stop_url': '', 'location_type': 0, 'wheelchair_boarding': 0}
{'stop_id': 1167, 'stop_code': '', 'stop_name': 'Bugden Av before Sternberg Cr', 'stop_lat': -35.402691, 'stop_lon': 149.107556, 'zone_id': '', 'stop_url': '', 'location_type': 0, 'wheelchair_boarding': 0}
{'stop_id': 1168, 'stop_code': '', 'stop_name': 'Bugden Av before 2nd Appel Cr', 'stop_lat': -35.39954, 'stop_lon': 149.115823, 'zone_id': '', 'stop_url': '', 'location_type': 0, 'wheelchair_boarding': 0}
{'stop_id': 1170, 'stop_code': '', 'stop_name': 'Sternberg Cr after Erindale Dr', 'stop_lat': -35.402261, 'stop_lon': 149.103288, 'zone_id': '', 'stop_url': '', 'location_type': 0, 'wheelchair_boarding': 0}
{'stop_id': 1171, 'stop_code': '', 'stop_name': 'Sternberg Cr after Ashley Dr', 'stop_lat': -35.401941, 'stop_lon': 149.100575, 'zone_id': '', 'stop_url': '', 'location_type': 0, 'wheelchair_boarding': 0}
{'stop_id': 1172, 'stop_code': '', 'stop_name': 'Erindale Interchange Plt 1', 'stop_lat': -35.403649, 'stop_lon': 149.099162, 'zone_id': '', 'stop_url': '', 'location_type': 0, 'wheelchair_boarding': 0}
{'stop_id': 1173, 'stop_code': '', 'stop_name': 'Erindale Interchange Plt 2', 'stop_lat': -35.404053, 'stop_lon': 149.099282, 'zone_id': '', 'stop_url': '', 'location_type': 0, 'wheelchair_boarding': 0}
{'stop_id': 1174, 'stop_code': '', 'stop_name': 'Sternberg Cr before Maltby Cct', 'stop_lat': -35.401992, 'stop_lon': 149.102749, 'zone_id': '', 'stop_url': '', 'location_type': 0, 'wheelchair_boarding': 0}
{'stop_id': 1176, 'stop_code': '', 'stop_name': 'Erindale College McBryde Cr', 'stop_lat': -35.403907, 'stop_lon': 149.095995, 'zone_id': '', 'stop_url': '', 'location_type': 0, 'wheelchair_boarding': 0}
{'stop_id': 1177, 'stop_code': '', 'stop_name': 'McBryde Cr opp Erindale College', 'stop_lat': -35.404224, 'stop_lon': 149.096148, 'zone_id': '', 'stop_url': '', 'location_type': 0, 'wheelchair_boarding': 0}
{'stop_id': 1178, 'stop_code': '', 'stop_name': 'Amsinck St after McBryde Cr', 'stop_lat': -35.405554, 'stop_lon': 149.093547, 'zone_id': '', 'stop_url': '', 'location_type': 0, 'wheelchair_boarding': 0}
{'stop_id': 1179, 'stop_code': '', 'stop_name': 'Amsinck St before McBryde Cr', 'stop_lat': -35.405601, 'stop_lon': 149.093296, 'zone_id': '', 'stop_url': '', 'location_type': 0, 'wheelchair_boarding': 0}
{'stop_id': 1180, 'stop_code': '', 'stop_name': 'MacKillop College McBryde Cr', 'stop_lat': -35.406139, 'stop_lon': 149.090581, 'zone_id': '', 'stop_url': '', 'location_type': 0, 'wheelchair_boarding': 0}
{'stop_id': 1181, 'stop_code': '', 'stop_name': 'McBryde Cr opp MacKillop College', 'stop_lat': -35.406264, 'stop_lon': 149.090564, 'zone_id': '', 'stop_url': '', 'location_type': 0, 'wheelchair_boarding': 0}
{'stop_id': 1182, 'stop_code': '', 'stop_name': 'Woodcock Dr before Clare Dennis Av', 'stop_lat': -35.441863, 'stop_lon': 149.086183, 'zone_id': '', 'stop_url': '', 'location_type': 0, 'wheelchair_boarding': 0}
{'stop_id': 1183, 'stop_code': '', 'stop_name': 'Woodcock Dr opp Clare Dennis Av', 'stop_lat': -35.441692, 'stop_lon': 149.086154, 'zone_id': '', 'stop_url': '', 'location_type': 0, 'wheelchair_boarding': 0}
{'stop_id': 1184, 'stop_code': '', 'stop_name': 'Clare Dennis Av before Armbruster St', 'stop_lat': -35.443044, 'stop_lon': 149.085974, 'zone_id': '', 'stop_url': '', 'location_type': 0, 'wheelchair_boarding': 0}
{'stop_id': 1185, 'stop_code': '', 'stop_name': 'Clare Dennis Av before 1st Fred Ln Cr', 'stop_lat': -35.445159, 'stop_lon': 149.0878, 'zone_id': '', 'stop_url': '', 'location_type': 0, 'wheelchair_boarding': 0}
{'stop_id': 1186, 'stop_code': '', 'stop_name': 'Clare Dennis Av before 2nd Fred Ln Cr', 'stop_lat': -35.446768, 'stop_lon': 149.086077, 'zone_id': '', 'stop_url': '', 'location_type': 0, 'wheelchair_boarding': 0}
{'stop_id': 1187, 'stop_code': '', 'stop_name': 'Clare Dennis Av before Preddey Way', 'stop_lat': -35.447089, 'stop_lon': 149.08384, 'zone_id': '', 'stop_url': '', 'location_type': 0, 'wheelchair_boarding': 0}
{'stop_id': 1188, 'stop_code': '', 'stop_name': 'Lewis Luxton Av after Preddy Way', 'stop_lat': -35.448402, 'stop_lon': 149.086122, 'zone_id': '', 'stop_url': '', 'location_type': 0, 'wheelchair_boarding': 0}
{'stop_id': 1189, 'stop_code': '', 'stop_name': 'Lewis Luxton Av opp Blinkhorn Pl', 'stop_lat': -35.450436, 'stop_lon': 149.08909, 'zone_id': '', 'stop_url': '', 'location_type': 0, 'wheelchair_boarding': 0}
{'stop_id': 1190, 'stop_code': '', 'stop_name': 'Lewis Luxton Av opp 2nd Cerutty Cr', 'stop_lat': -35.452903, 'stop_lon': 149.08797, 'zone_id': '', 'stop_url': '', 'location_type': 0, 'wheelchair_boarding': 0}
{'stop_id': 1191, 'stop_code': '', 'stop_name': 'Knoke Av opp Gordon PS', 'stop_lat': -35.458121, 'stop_lon': 149.086118, 'zone_id': '', 'stop_url': '', 'location_type': 0, 'wheelchair_boarding': 0}
{'stop_id': 1192, 'stop_code': '', 'stop_name': 'Knoke Av before Oxenham Cct', 'stop_lat': -35.460578, 'stop_lon': 149.085659, 'zone_id': '', 'stop_url': '', 'location_type': 0, 'wheelchair_boarding': 0}
{'stop_id': 1193, 'stop_code': '', 'stop_name': 'Knoke Av after Jim Pike Av', 'stop_lat': -35.462281, 'stop_lon': 149.083208, 'zone_id': '', 'stop_url': '', 'location_type': 0, 'wheelchair_boarding': 0}
{'stop_id': 1194, 'stop_code': '', 'stop_name': 'Jim Pike Av before Clem Hill St', 'stop_lat': -35.462016, 'stop_lon': 149.079911, 'zone_id': '', 'stop_url': '', 'location_type': 0, 'wheelchair_boarding': 0}
{'stop_id': 1195, 'stop_code': '', 'stop_name': 'Callaway Cr at 1st Myles Connell Cr', 'stop_lat': -35.459068, 'stop_lon': 149.080047, 'zone_id': '', 'stop_url': '', 'location_type': 0, 'wheelchair_boarding': 0}
{'stop_id': 1196, 'stop_code': '', 'stop_name': '39 Callaway Cr', 'stop_lat': -35.460036, 'stop_lon': 149.081737, 'zone_id': '', 'stop_url': '', 'location_type': 0, 'wheelchair_boarding': 0}
{'stop_id': 1197, 'stop_code': '', 'stop_name': 'Bugden Av after 2nd Chataway Cr', 'stop_lat': -35.398638, 'stop_lon': 149.117563, 'zone_id': '', 'stop_url': '', 'location_type': 0, 'wheelchair_boarding': 0}
{'stop_id': 1198, 'stop_code': '', 'stop_name': 'Bugden Av opp 1st Chataway Cr', 'stop_lat': -35.398045, 'stop_lon': 149.118252, 'zone_id': '', 'stop_url': '', 'location_type': 0, 'wheelchair_boarding': 0}
{'stop_id': 1199, 'stop_code': '', 'stop_name': 'Knoke Av after Clem Hill St', 'stop_lat': -35.464786, 'stop_lon': 149.084188, 'zone_id': '', 'stop_url': '', 'location_type': 0, 'wheelchair_boarding': 0}
{'stop_id': 1200, 'stop_code': '', 'stop_name': 'Knoke Av after 2nd Harry Hopman Cct', 'stop_lat': -35.467259, 'stop_lon': 149.087641, 'zone_id': '', 'stop_url': '', 'location_type': 0, 'wheelchair_boarding': 0}
{'stop_id': 1201, 'stop_code': '', 'stop_name': 'Knoke Av after 1st Harry Hopman Cct', 'stop_lat': -35.472807, 'stop_lon': 149.089281, 'zone_id': '', 'stop_url': '', 'location_type': 0, 'wheelchair_boarding': 0}
{'stop_id': 1202, 'stop_code': '', 'stop_name': 'Pockett Av after Bellchambers Cr', 'stop_lat': -35.474078, 'stop_lon': 149.093168, 'zone_id': '', 'stop_url': '', 'location_type': 0, 'wheelchair_boarding': 0}
{'stop_id': 1203, 'stop_code': '', 'stop_name': 'Pockett Av after Wilson Cr', 'stop_lat': -35.471702, 'stop_lon': 149.096924, 'zone_id': '', 'stop_url': '', 'location_type': 0, 'wheelchair_boarding': 0}
{'stop_id': 1204, 'stop_code': '', 'stop_name': 'Pockett Av after 2nd Ironbark Cr', 'stop_lat': -35.469475, 'stop_lon': 149.097634, 'zone_id': '', 'stop_url': '', 'location_type': 0, 'wheelchair_boarding': 0}
{'stop_id': 1205, 'stop_code': '', 'stop_name': 'Pockett Av after Perrin Cct', 'stop_lat': -35.467558, 'stop_lon': 149.095362, 'zone_id': '', 'stop_url': '', 'location_type': 0, 'wheelchair_boarding': 0}
{'stop_id': 1206, 'stop_code': '', 'stop_name': 'Pockett Av before Thomas Hart St', 'stop_lat': -35.46528, 'stop_lon': 149.094099, 'zone_id': '', 'stop_url': '', 'location_type': 0, 'wheelchair_boarding': 0}
{'stop_id': 1207, 'stop_code': '', 'stop_name': 'Tom Roberts Av at Box Hill Av', 'stop_lat': -35.463823, 'stop_lon': 149.096494, 'zone_id': '', 'stop_url': '', 'location_type': 0, 'wheelchair_boarding': 0}
{'stop_id': 1208, 'stop_code': '', 'stop_name': 'Tom Roberts Av opp Charles Conder PS', 'stop_lat': -35.465324, 'stop_lon': 149.098411, 'zone_id': '', 'stop_url': '', 'location_type': 0, 'wheelchair_boarding': 0}
{'stop_id': 1210, 'stop_code': '', 'stop_name': 'Tom Roberts Av before Jane Sutherland St', 'stop_lat': -35.466303, 'stop_lon': 149.105607, 'zone_id': '', 'stop_url': '', 'location_type': 0, 'wheelchair_boarding': 0}
{'stop_id': 1211, 'stop_code': '', 'stop_name': 'Tom Roberts Av before 1st Templestowe Av', 'stop_lat': -35.462228, 'stop_lon': 149.105193, 'zone_id': '', 'stop_url': '', 'location_type': 0, 'wheelchair_boarding': 0}
{'stop_id': 1212, 'stop_code': '', 'stop_name': 'Tom Roberts Av opp John Russell Cct', 'stop_lat': -35.461222, 'stop_lon': 149.102208, 'zone_id': '', 'stop_url': '', 'location_type': 0, 'wheelchair_boarding': 0}
{'stop_id': 1213, 'stop_code': '', 'stop_name': 'Tom Roberts Av after Box Hill Av', 'stop_lat': -35.460419, 'stop_lon': 149.099253, 'zone_id': '', 'stop_url': '', 'location_type': 0, 'wheelchair_boarding': 0}
{'stop_id': 1214, 'stop_code': '', 'stop_name': 'Tom Roberts Av after 1st Beaumaris St', 'stop_lat': -35.466403, 'stop_lon': 149.10042, 'zone_id': '', 'stop_url': '', 'location_type': 0, 'wheelchair_boarding': 0}
{'stop_id': 1215, 'stop_code': '', 'stop_name': 'Box Hill Av opp Lanyon Marketplace', 'stop_lat': -35.456171, 'stop_lon': 149.092495, 'zone_id': '', 'stop_url': '', 'location_type': 0, 'wheelchair_boarding': 0}
{'stop_id': 1216, 'stop_code': '', 'stop_name': 'Box Hill Av opp St Clare of Assisi PS', 'stop_lat': -35.457716, 'stop_lon': 149.097362, 'zone_id': '', 'stop_url': '', 'location_type': 0, 'wheelchair_boarding': 0}
{'stop_id': 1217, 'stop_code': '', 'stop_name': 'Lanyon Marketplace Box Hill Av', 'stop_lat': -35.456354, 'stop_lon': 149.092463, 'zone_id': '', 'stop_url': '', 'location_type': 0, 'wheelchair_boarding': 0}
{'stop_id': 1218, 'stop_code': '', 'stop_name': 'St Clare of Assisi PS Box Hill Av', 'stop_lat': -35.457981, 'stop_lon': 149.097464, 'zone_id': '', 'stop_url': '', 'location_type': 0, 'wheelchair_boarding': 0}
{'stop_id': 1219, 'stop_code': '', 'stop_name': 'Tom Roberts Av before Box Hill Av', 'stop_lat': -35.46047, 'stop_lon': 149.099015, 'zone_id': '', 'stop_url': '', 'location_type': 0, 'wheelchair_boarding': 0}
{'stop_id': 1220, 'stop_code': '', 'stop_name': 'Tom Roberts Av before Altson Cct', 'stop_lat': -35.461297, 'stop_lon': 149.10181, 'zone_id': '', 'stop_url': '', 'location_type': 0, 'wheelchair_boarding': 0}
{'stop_id': 1221, 'stop_code': '', 'stop_name': 'Tom Roberts Av before Lethbridge St', 'stop_lat': -35.462199, 'stop_lon': 149.104985, 'zone_id': '', 'stop_url': '', 'location_type': 0, 'wheelchair_boarding': 0}
{'stop_id': 1223, 'stop_code': '', 'stop_name': 'Charles Conder PS Tom Roberts Av', 'stop_lat': -35.464854, 'stop_lon': 149.097978, 'zone_id': '', 'stop_url': '', 'location_type': 0, 'wheelchair_boarding': 0}
{'stop_id': 1224, 'stop_code': '', 'stop_name': 'Pockett Av before Box Hill Av', 'stop_lat': -35.464987, 'stop_lon': 149.093953, 'zone_id': '', 'stop_url': '', 'location_type': 0, 'wheelchair_boarding': 0}
{'stop_id': 1225, 'stop_code': '', 'stop_name': 'Pockett Av before 2nd Tregellas Cr', 'stop_lat': -35.46759, 'stop_lon': 149.095269, 'zone_id': '', 'stop_url': '', 'location_type': 0, 'wheelchair_boarding': 0}
{'stop_id': 1226, 'stop_code': '', 'stop_name': 'Pockett Av opp Wiburd St', 'stop_lat': -35.470394, 'stop_lon': 149.097662, 'zone_id': '', 'stop_url': '', 'location_type': 0, 'wheelchair_boarding': 0}
{'stop_id': 1227, 'stop_code': '', 'stop_name': 'Banks Shops Pockett Av', 'stop_lat': -35.472431, 'stop_lon': 149.095951, 'zone_id': '', 'stop_url': '', 'location_type': 0, 'wheelchair_boarding': 0}
{'stop_id': 1228, 'stop_code': '', 'stop_name': 'Pockett Av before Brockway Cct', 'stop_lat': -35.473497, 'stop_lon': 149.091731, 'zone_id': '', 'stop_url': '', 'location_type': 0, 'wheelchair_boarding': 0}
{'stop_id': 1229, 'stop_code': '', 'stop_name': 'Knoke Av after Coventry Cl', 'stop_lat': -35.472849, 'stop_lon': 149.089454, 'zone_id': '', 'stop_url': '', 'location_type': 0, 'wheelchair_boarding': 0}
{'stop_id': 1230, 'stop_code': '', 'stop_name': 'Knoke Av after Minnett Cl', 'stop_lat': -35.470765, 'stop_lon': 149.088898, 'zone_id': '', 'stop_url': '', 'location_type': 0, 'wheelchair_boarding': 0}
{'stop_id': 1231, 'stop_code': '', 'stop_name': "Knoke Av opp O'Hara Cl", 'stop_lat': -35.470876, 'stop_lon': 149.088786, 'zone_id': '', 'stop_url': '', 'location_type': 0, 'wheelchair_boarding': 0}
{'stop_id': 1232, 'stop_code': '', 'stop_name': 'Knoke Av before 2nd Mina Wylie Cr', 'stop_lat': -35.467176, 'stop_lon': 149.087682, 'zone_id': '', 'stop_url': '', 'location_type': 0, 'wheelchair_boarding': 0}
{'stop_id': 1233, 'stop_code': '', 'stop_name': 'Knoke Av before Matson St', 'stop_lat': -35.46567, 'stop_lon': 149.085585, 'zone_id': '', 'stop_url': '', 'location_type': 0, 'wheelchair_boarding': 0}
{'stop_id': 1234, 'stop_code': '', 'stop_name': 'Knoke Av opp Jim Pike Av', 'stop_lat': -35.461984, 'stop_lon': 149.083647, 'zone_id': '', 'stop_url': '', 'location_type': 0, 'wheelchair_boarding': 0}
{'stop_id': 1235, 'stop_code': '', 'stop_name': 'Knoke Av after Midge St', 'stop_lat': -35.460663, 'stop_lon': 149.085728, 'zone_id': '', 'stop_url': '', 'location_type': 0, 'wheelchair_boarding': 0}
{'stop_id': 1237, 'stop_code': '', 'stop_name': 'Lewis Luxton Av before 1st Cerutty Cr', 'stop_lat': -35.452995, 'stop_lon': 149.087346, 'zone_id': '', 'stop_url': '', 'location_type': 0, 'wheelchair_boarding': 0}
{'stop_id': 1238, 'stop_code': '', 'stop_name': 'Lewis Luxton Av before Blinkhorn Pl', 'stop_lat': -35.450896, 'stop_lon': 149.089342, 'zone_id': '', 'stop_url': '', 'location_type': 0, 'wheelchair_boarding': 0}
{'stop_id': 1239, 'stop_code': '', 'stop_name': '61 Lewis Luxton Av', 'stop_lat': -35.448733, 'stop_lon': 149.087143, 'zone_id': '', 'stop_url': '', 'location_type': 0, 'wheelchair_boarding': 0}
{'stop_id': 1240, 'stop_code': '', 'stop_name': 'Preddy Way at Fingleton Cr', 'stop_lat': -35.448164, 'stop_lon': 149.084205, 'zone_id': '', 'stop_url': '', 'location_type': 0, 'wheelchair_boarding': 0}
{'stop_id': 1241, 'stop_code': '', 'stop_name': 'Clare Dennis Av before 2nd Noel Ryan Gdn', 'stop_lat': -35.446543, 'stop_lon': 149.085447, 'zone_id': '', 'stop_url': '', 'location_type': 0, 'wheelchair_boarding': 0}
{'stop_id': 1242, 'stop_code': '', 'stop_name': 'Clare Dennis Av opp Churchill Way', 'stop_lat': -35.444641, 'stop_lon': 149.087167, 'zone_id': '', 'stop_url': '', 'location_type': 0, 'wheelchair_boarding': 0}
{'stop_id': 1243, 'stop_code': '', 'stop_name': 'Clare Dennis Av after Woodfull Lp', 'stop_lat': -35.44312, 'stop_lon': 149.085845, 'zone_id': '', 'stop_url': '', 'location_type': 0, 'wheelchair_boarding': 0}
{'stop_id': 1248, 'stop_code': '', 'stop_name': 'Streeton Dr before 1st Fremantle Dr', 'stop_lat': -35.34468, 'stop_lon': 149.047096, 'zone_id': '', 'stop_url': '', 'location_type': 0, 'wheelchair_boarding': 0}
{'stop_id': 1249, 'stop_code': '', 'stop_name': 'Streeton Dr before Hindmarsh Dr', 'stop_lat': -35.344613, 'stop_lon': 149.047036, 'zone_id': '', 'stop_url': '', 'location_type': 0, 'wheelchair_boarding': 0}
{'stop_id': 1250, 'stop_code': '', 'stop_name': 'Fremantle Dr after Streeton Dr', 'stop_lat': -35.346407, 'stop_lon': 149.046936, 'zone_id': '', 'stop_url': '', 'location_type': 0, 'wheelchair_boarding': 0}
{'stop_id': 1251, 'stop_code': '', 'stop_name': 'Fremantle Dr before Streeton Dr', 'stop_lat': -35.3466, 'stop_lon': 149.047038, 'zone_id': '', 'stop_url': '', 'location_type': 0, 'wheelchair_boarding': 0}
{'stop_id': 1252, 'stop_code': '', 'stop_name': 'Fremantle Dr before Bunbury St', 'stop_lat': -35.348284, 'stop_lon': 149.049235, 'zone_id': '', 'stop_url': '', 'location_type': 0, 'wheelchair_boarding': 0}
{'stop_id': 1253, 'stop_code': '', 'stop_name': 'Fremantle Dr opp 1st McKail Cr', 'stop_lat': -35.34736, 'stop_lon': 149.048194, 'zone_id': '', 'stop_url': '', 'location_type': 0, 'wheelchair_boarding': 0}
{'stop_id': 1258, 'stop_code': '', 'stop_name': 'Namatjira Dr opp St John Vianney', 'stop_lat': -35.35258, 'stop_lon': 149.053303, 'zone_id': '', 'stop_url': '', 'location_type': 0, 'wheelchair_boarding': 0}
{'stop_id': 1259, 'stop_code': '', 'stop_name': 'Namatjira Dr after Streeton Dr', 'stop_lat': -35.355188, 'stop_lon': 149.050493, 'zone_id': '', 'stop_url': '', 'location_type': 0, 'wheelchair_boarding': 0}
{'stop_id': 1260, 'stop_code': '', 'stop_name': 'St John Vianney Namatjira Dr', 'stop_lat': -35.351922, 'stop_lon': 149.05415, 'zone_id': '', 'stop_url': '', 'location_type': 0, 'wheelchair_boarding': 0}
{'stop_id': 1261, 'stop_code': '', 'stop_name': 'Tom Roberts Av after Wiburd St', 'stop_lat': -35.466561, 'stop_lon': 149.100512, 'zone_id': '', 'stop_url': '', 'location_type': 0, 'wheelchair_boarding': 0}
{'stop_id': 1262, 'stop_code': '', 'stop_name': 'Wiburd St before Pockett Av', 'stop_lat': -35.469931, 'stop_lon': 149.098659, 'zone_id': '', 'stop_url': '', 'location_type': 0, 'wheelchair_boarding': 0}
{'stop_id': 1263, 'stop_code': '', 'stop_name': 'Namatjira Dr after Badimara St', 'stop_lat': -35.355115, 'stop_lon': 149.050801, 'zone_id': '', 'stop_url': '', 'location_type': 0, 'wheelchair_boarding': 0}
{'stop_id': 1264, 'stop_code': '', 'stop_name': 'Namatjira Dr opp Perry Dr', 'stop_lat': -35.35848, 'stop_lon': 149.047931, 'zone_id': '', 'stop_url': '', 'location_type': 0, 'wheelchair_boarding': 0}
{'stop_id': 1265, 'stop_code': '', 'stop_name': 'Namatjira Dr before Kapunda St', 'stop_lat': -35.360591, 'stop_lon': 149.047806, 'zone_id': '', 'stop_url': '', 'location_type': 0, 'wheelchair_boarding': 0}
{'stop_id': 1266, 'stop_code': '', 'stop_name': 'Namatjira Dr opp 204', 'stop_lat': -35.363693, 'stop_lon': 149.049925, 'zone_id': '', 'stop_url': '', 'location_type': 0, 'wheelchair_boarding': 0}
{'stop_id': 1269, 'stop_code': '', 'stop_name': 'Namatjira Dr after Perry Dr', 'stop_lat': -35.358207, 'stop_lon': 149.047876, 'zone_id': '', 'stop_url': '', 'location_type': 0, 'wheelchair_boarding': 0}
{'stop_id': 1270, 'stop_code': '', 'stop_name': 'Namatjira Dr before Perry Dr', 'stop_lat': -35.360443, 'stop_lon': 149.047657, 'zone_id': '', 'stop_url': '', 'location_type': 0, 'wheelchair_boarding': 0}
{'stop_id': 1271, 'stop_code': '', 'stop_name': 'Namatjira Dr opp 223', 'stop_lat': -35.364329, 'stop_lon': 149.050323, 'zone_id': '', 'stop_url': '', 'location_type': 0, 'wheelchair_boarding': 0}
{'stop_id': 1272, 'stop_code': '', 'stop_name': 'Kambah Pool Rd after Sulwood Dr', 'stop_lat': -35.375136, 'stop_lon': 149.048963, 'zone_id': '', 'stop_url': '', 'location_type': 0, 'wheelchair_boarding': 0}
{'stop_id': 1273, 'stop_code': '', 'stop_name': 'Kambah Pool Rd after Barritt St', 'stop_lat': -35.37534, 'stop_lon': 149.048615, 'zone_id': '', 'stop_url': '', 'location_type': 0, 'wheelchair_boarding': 0}
{'stop_id': 1274, 'stop_code': '', 'stop_name': 'Barritt St after Kambah Pool Rd', 'stop_lat': -35.377991, 'stop_lon': 149.048365, 'zone_id': '', 'stop_url': '', 'location_type': 0, 'wheelchair_boarding': 0}
{'stop_id': 1275, 'stop_code': '', 'stop_name': 'Barritt St before Kambah Pool Rd', 'stop_lat': -35.378093, 'stop_lon': 149.048299, 'zone_id': '', 'stop_url': '', 'location_type': 0, 'wheelchair_boarding': 0}
{'stop_id': 1276, 'stop_code': '', 'stop_name': 'Barritt St before Boddington Cr', 'stop_lat': -35.380209, 'stop_lon': 149.05186, 'zone_id': '', 'stop_url': '', 'location_type': 0, 'wheelchair_boarding': 0}
{'stop_id': 1277, 'stop_code': '', 'stop_name': 'Barritt St after Boddington Cr', 'stop_lat': -35.379861, 'stop_lon': 149.051195, 'zone_id': '', 'stop_url': '', 'location_type': 0, 'wheelchair_boarding': 0}
{'stop_id': 1278, 'stop_code': '', 'stop_name': 'Boddington Cr before Barritt St', 'stop_lat': -35.381211, 'stop_lon': 149.051777, 'zone_id': '', 'stop_url': '', 'location_type': 0, 'wheelchair_boarding': 0}
{'stop_id': 1279, 'stop_code': '', 'stop_name': 'Boddington Cr after Carleton St', 'stop_lat': -35.382091, 'stop_lon': 149.051152, 'zone_id': '', 'stop_url': '', 'location_type': 0, 'wheelchair_boarding': 0}
{'stop_id': 1280, 'stop_code': '', 'stop_name': 'Boddington Cr opp Carleton St', 'stop_lat': -35.382089, 'stop_lon': 149.051281, 'zone_id': '', 'stop_url': '', 'location_type': 0, 'wheelchair_boarding': 0}
{'stop_id': 1281, 'stop_code': '', 'stop_name': 'Boddington Cr before 1st Castley Cct', 'stop_lat': -35.385031, 'stop_lon': 149.050564, 'zone_id': '', 'stop_url': '', 'location_type': 0, 'wheelchair_boarding': 0}
{'stop_id': 1282, 'stop_code': '', 'stop_name': 'Boddington Cr after 2nd Crozier Cct', 'stop_lat': -35.385778, 'stop_lon': 149.050416, 'zone_id': '', 'stop_url': '', 'location_type': 0, 'wheelchair_boarding': 0}
{'stop_id': 1283, 'stop_code': '', 'stop_name': 'Boddington Cr after 2nd Castley Cct', 'stop_lat': -35.389283, 'stop_lon': 149.051643, 'zone_id': '', 'stop_url': '', 'location_type': 0, 'wheelchair_boarding': 0}
{'stop_id': 1284, 'stop_code': '', 'stop_name': 'Boddington Cr after Bateman St', 'stop_lat': -35.389192, 'stop_lon': 149.051368, 'zone_id': '', 'stop_url': '', 'location_type': 0, 'wheelchair_boarding': 0}
{'stop_id': 1285, 'stop_code': '', 'stop_name': 'Boddington Cr opp McLeod Pl', 'stop_lat': -35.390043, 'stop_lon': 149.053656, 'zone_id': '', 'stop_url': '', 'location_type': 0, 'wheelchair_boarding': 0}
{'stop_id': 1286, 'stop_code': '', 'stop_name': 'Boddington Cr opp Broad Pl', 'stop_lat': -35.389199, 'stop_lon': 149.056659, 'zone_id': '', 'stop_url': '', 'location_type': 0, 'wheelchair_boarding': 0}
{'stop_id': 1287, 'stop_code': '', 'stop_name': 'Boddington Cr after McLeod Pl', 'stop_lat': -35.390316, 'stop_lon': 149.053797, 'zone_id': '', 'stop_url': '', 'location_type': 0, 'wheelchair_boarding': 0}
{'stop_id': 1288, 'stop_code': '', 'stop_name': 'Boddington Cr before Broad Pl', 'stop_lat': -35.389395, 'stop_lon': 149.057158, 'zone_id': '', 'stop_url': '', 'location_type': 0, 'wheelchair_boarding': 0}
{'stop_id': 1289, 'stop_code': '', 'stop_name': "O'Halloran Cct opp Boddington Cr", 'stop_lat': -35.390376, 'stop_lon': 149.059036, 'zone_id': '', 'stop_url': '', 'location_type': 0, 'wheelchair_boarding': 0}
{'stop_id': 1290, 'stop_code': '', 'stop_name': "O'Halloran Cct before Boddington Cr", 'stop_lat': -35.390364, 'stop_lon': 149.058859, 'zone_id': '', 'stop_url': '', 'location_type': 0, 'wheelchair_boarding': 0}
{'stop_id': 1291, 'stop_code': '', 'stop_name': "O'Halloran Cct after 2nd Springbett St", 'stop_lat': -35.392912, 'stop_lon': 149.058194, 'zone_id': '', 'stop_url': '', 'location_type': 0, 'wheelchair_boarding': 0}
{'stop_id': 1292, 'stop_code': '', 'stop_name': "O'Halloran Cct before 2nd McKillop Cct", 'stop_lat': -35.393119, 'stop_lon': 149.058008, 'zone_id': '', 'stop_url': '', 'location_type': 0, 'wheelchair_boarding': 0}
{'stop_id': 1293, 'stop_code': '', 'stop_name': "O'Halloran Cct before 1st Snodgrass Cr", 'stop_lat': -35.395622, 'stop_lon': 149.059255, 'zone_id': '', 'stop_url': '', 'location_type': 0, 'wheelchair_boarding': 0}
{'stop_id': 1294, 'stop_code': '', 'stop_name': "O'Halloran Cct opp 2nd Snodgrass Cr", 'stop_lat': -35.395814, 'stop_lon': 149.059279, 'zone_id': '', 'stop_url': '', 'location_type': 0, 'wheelchair_boarding': 0}
{'stop_id': 1295, 'stop_code': '', 'stop_name': "O'Halloran Cct before Vansittart Cr", 'stop_lat': -35.39579, 'stop_lon': 149.062886, 'zone_id': '', 'stop_url': '', 'location_type': 0, 'wheelchair_boarding': 0}
{'stop_id': 1296, 'stop_code': '', 'stop_name': "O'Halloran Cct after Vansittart Cr", 'stop_lat': -35.395919, 'stop_lon': 149.062892, 'zone_id': '', 'stop_url': '', 'location_type': 0, 'wheelchair_boarding': 0}
{'stop_id': 1297, 'stop_code': '', 'stop_name': "O'Halloran Cct before Ashby Cct", 'stop_lat': -35.394099, 'stop_lon': 149.065924, 'zone_id': '', 'stop_url': '', 'location_type': 0, 'wheelchair_boarding': 0}
{'stop_id': 1298, 'stop_code': '', 'stop_name': "O'Halloran Cct opp Ashby Cct", 'stop_lat': -35.393972, 'stop_lon': 149.065792, 'zone_id': '', 'stop_url': '', 'location_type': 0, 'wheelchair_boarding': 0}
{'stop_id': 1299, 'stop_code': '', 'stop_name': "O'Halloran Cct opp Namadgi School", 'stop_lat': -35.393073, 'stop_lon': 149.067676, 'zone_id': '', 'stop_url': '', 'location_type': 0, 'wheelchair_boarding': 0}
{'stop_id': 13, 'stop_code': '', 'stop_name': 'Tuggeranong Interchange Arrivals', 'stop_lat': -35.414955, 'stop_lon': 149.06608, 'zone_id': '', 'stop_url': 'https://www.transport.act.gov.au/__data/assets/pdf_file/0013/1244200/TC_station_tuggeranong.pdf', 'location_type': 0, 'wheelchair_boarding': 0}
{'stop_id': 1300, 'stop_code': '', 'stop_name': "Namadgi School O'Halloran Cct", 'stop_lat': -35.392579, 'stop_lon': 149.068207, 'zone_id': '', 'stop_url': '', 'location_type': 0, 'wheelchair_boarding': 0}
{'stop_id': 1301, 'stop_code': '', 'stop_name': 'Summerland Cct after Vanzetti Cr', 'stop_lat': -35.391096, 'stop_lon': 149.071581, 'zone_id': '', 'stop_url': '', 'location_type': 0, 'wheelchair_boarding': 0}
{'stop_id': 1302, 'stop_code': '', 'stop_name': 'Summerland Cct before 1st Kingsmill St', 'stop_lat': -35.390979, 'stop_lon': 149.071495, 'zone_id': '', 'stop_url': '', 'location_type': 0, 'wheelchair_boarding': 0}
{'stop_id': 1303, 'stop_code': '', 'stop_name': 'Summerland Cct before 2nd Kingsmill St', 'stop_lat': -35.390028, 'stop_lon': 149.073554, 'zone_id': '', 'stop_url': '', 'location_type': 0, 'wheelchair_boarding': 0}
{'stop_id': 1304, 'stop_code': '', 'stop_name': 'Summerland Cct after Livingston Av', 'stop_lat': -35.390173, 'stop_lon': 149.073483, 'zone_id': '', 'stop_url': '', 'location_type': 0, 'wheelchair_boarding': 0}
{'stop_id': 1319, 'stop_code': '', 'stop_name': 'Wheeler Cr before Wanniassa HS', 'stop_lat': -35.394195, 'stop_lon': 149.084369, 'zone_id': '', 'stop_url': '', 'location_type': 0, 'wheelchair_boarding': 0}
{'stop_id': 1320, 'stop_code': '', 'stop_name': 'St Anthonys PS Wheeler Cr', 'stop_lat': -35.394895, 'stop_lon': 149.080012, 'zone_id': '', 'stop_url': '', 'location_type': 0, 'wheelchair_boarding': 0}
{'stop_id': 1321, 'stop_code': '', 'stop_name': 'Wheeler Cr after Wanniassa HS', 'stop_lat': -35.394279, 'stop_lon': 149.08497, 'zone_id': '', 'stop_url': '', 'location_type': 0, 'wheelchair_boarding': 0}
{'stop_id': 1322, 'stop_code': '', 'stop_name': 'Wheeler Cr opp St Anthonys PS', 'stop_lat': -35.394982, 'stop_lon': 149.079947, 'zone_id': '', 'stop_url': '', 'location_type': 0, 'wheelchair_boarding': 0}
{'stop_id': 1323, 'stop_code': '', 'stop_name': 'Fincham Cr after Morrissey St', 'stop_lat': -35.39616, 'stop_lon': 149.078911, 'zone_id': '', 'stop_url': '', 'location_type': 0, 'wheelchair_boarding': 0}
{'stop_id': 1324, 'stop_code': '', 'stop_name': 'Fincham Cr after Wheeler Cr', 'stop_lat': -35.3963, 'stop_lon': 149.079126, 'zone_id': '', 'stop_url': '', 'location_type': 0, 'wheelchair_boarding': 0}
{'stop_id': 1325, 'stop_code': '', 'stop_name': 'Fincham Cr before Stutt St', 'stop_lat': -35.398613, 'stop_lon': 149.080301, 'zone_id': '', 'stop_url': '', 'location_type': 0, 'wheelchair_boarding': 0}
{'stop_id': 1326, 'stop_code': '', 'stop_name': 'Fincham Cr after 1st DeGraves Cr', 'stop_lat': -35.398902, 'stop_lon': 149.080518, 'zone_id': '', 'stop_url': '', 'location_type': 0, 'wheelchair_boarding': 0}
{'stop_id': 1327, 'stop_code': '', 'stop_name': 'Forlonge St after Fincham Cr', 'stop_lat': -35.401054, 'stop_lon': 149.081262, 'zone_id': '', 'stop_url': '', 'location_type': 0, 'wheelchair_boarding': 0}
{'stop_id': 1328, 'stop_code': '', 'stop_name': 'Forlonge St before Gair Pl', 'stop_lat': -35.401413, 'stop_lon': 149.080926, 'zone_id': '', 'stop_url': '', 'location_type': 0, 'wheelchair_boarding': 0}
{'stop_id': 1335, 'stop_code': '', 'stop_name': 'Sternberg Cr opp Houston St', 'stop_lat': -35.402386, 'stop_lon': 149.09281, 'zone_id': '', 'stop_url': '', 'location_type': 0, 'wheelchair_boarding': 0}
{'stop_id': 1336, 'stop_code': '', 'stop_name': 'Sternberg Cr opp Whiteman Cr', 'stop_lat': -35.4012, 'stop_lon': 149.094982, 'zone_id': '', 'stop_url': '', 'location_type': 0, 'wheelchair_boarding': 0}
{'stop_id': 1337, 'stop_code': '', 'stop_name': 'Sternberg Cr before Houston St', 'stop_lat': -35.40235, 'stop_lon': 149.092721, 'zone_id': '', 'stop_url': '', 'location_type': 0, 'wheelchair_boarding': 0}
{'stop_id': 1338, 'stop_code': '', 'stop_name': 'Sternberg Cr after Whiteman St', 'stop_lat': -35.401034, 'stop_lon': 149.095201, 'zone_id': '', 'stop_url': '', 'location_type': 0, 'wheelchair_boarding': 0}
{'stop_id': 1339, 'stop_code': '', 'stop_name': 'Sternberg Cr after Langdon Av', 'stop_lat': -35.401439, 'stop_lon': 149.098251, 'zone_id': '', 'stop_url': '', 'location_type': 0, 'wheelchair_boarding': 0}
{'stop_id': 1340, 'stop_code': '', 'stop_name': 'Sternberg Cr after Comrie St', 'stop_lat': -35.401696, 'stop_lon': 149.098671, 'zone_id': '', 'stop_url': '', 'location_type': 0, 'wheelchair_boarding': 0}
{'stop_id': 1341, 'stop_code': '', 'stop_name': 'Drakeford Dr after Boddington Cr', 'stop_lat': -35.377343, 'stop_lon': 149.056195, 'zone_id': '', 'stop_url': '', 'location_type': 0, 'wheelchair_boarding': 0}
{'stop_id': 1342, 'stop_code': '', 'stop_name': 'Drakeford Dr before Marconi Cr', 'stop_lat': -35.377347, 'stop_lon': 149.056592, 'zone_id': '', 'stop_url': '', 'location_type': 0, 'wheelchair_boarding': 0}
{'stop_id': 1343, 'stop_code': '', 'stop_name': 'Marconi Cr opp Kambah Village', 'stop_lat': -35.378927, 'stop_lon': 149.057634, 'zone_id': '', 'stop_url': '', 'location_type': 0, 'wheelchair_boarding': 0}
{'stop_id': 1344, 'stop_code': '', 'stop_name': 'Kambah Village Marconi Cr', 'stop_lat': -35.379136, 'stop_lon': 149.057769, 'zone_id': '', 'stop_url': '', 'location_type': 0, 'wheelchair_boarding': 0}
{'stop_id': 1345, 'stop_code': '', 'stop_name': 'Marconi Cr before 2nd Harrington Cct', 'stop_lat': -35.377833, 'stop_lon': 149.060636, 'zone_id': '', 'stop_url': '', 'location_type': 0, 'wheelchair_boarding': 0}
{'stop_id': 1346, 'stop_code': '', 'stop_name': 'Marconi Cr after Wyselaskie Cct', 'stop_lat': -35.378267, 'stop_lon': 149.06011, 'zone_id': '', 'stop_url': '', 'location_type': 0, 'wheelchair_boarding': 0}
{'stop_id': 1347, 'stop_code': '', 'stop_name': 'Marconi Cr opp Taylor PS', 'stop_lat': -35.377614, 'stop_lon': 149.064032, 'zone_id': '', 'stop_url': '', 'location_type': 0, 'wheelchair_boarding': 0}
{'stop_id': 1348, 'stop_code': '', 'stop_name': 'Taylor PS Marconi Cr', 'stop_lat': -35.377741, 'stop_lon': 149.06406, 'zone_id': '', 'stop_url': '', 'location_type': 0, 'wheelchair_boarding': 0}
{'stop_id': 1349, 'stop_code': '', 'stop_name': 'Marconi Cr after 2nd Lascelles Cct', 'stop_lat': -35.378684, 'stop_lon': 149.065348, 'zone_id': '', 'stop_url': '', 'location_type': 0, 'wheelchair_boarding': 0}
{'stop_id': 1350, 'stop_code': '', 'stop_name': 'Marconi Cr after Inkster St', 'stop_lat': -35.378728, 'stop_lon': 149.065491, 'zone_id': '', 'stop_url': '', 'location_type': 0, 'wheelchair_boarding': 0}
{'stop_id': 1351, 'stop_code': '', 'stop_name': 'Marconi Cr after 1st Lascelles Cct', 'stop_lat': -35.381701, 'stop_lon': 149.065314, 'zone_id': '', 'stop_url': '', 'location_type': 0, 'wheelchair_boarding': 0}
{'stop_id': 1352, 'stop_code': '', 'stop_name': 'Marconi Cr after Hutchison Cr', 'stop_lat': -35.381402, 'stop_lon': 149.065583, 'zone_id': '', 'stop_url': '', 'location_type': 0, 'wheelchair_boarding': 0}
{'stop_id': 1353, 'stop_code': '', 'stop_name': 'Summerland Cct before Hutchison Cr', 'stop_lat': -35.383372, 'stop_lon': 149.06747, 'zone_id': '', 'stop_url': '', 'location_type': 0, 'wheelchair_boarding': 0}
{'stop_id': 1354, 'stop_code': '', 'stop_name': 'Summerland Cct opp Hutchison Cr', 'stop_lat': -35.383463, 'stop_lon': 149.067486, 'zone_id': '', 'stop_url': '', 'location_type': 0, 'wheelchair_boarding': 0}
{'stop_id': 1355, 'stop_code': '', 'stop_name': 'Summerland Cct before Mannheim St', 'stop_lat': -35.384914, 'stop_lon': 149.070892, 'zone_id': '', 'stop_url': '', 'location_type': 0, 'wheelchair_boarding': 0}
{'stop_id': 1356, 'stop_code': '', 'stop_name': 'Summerland Cct before 1st Gallagher St', 'stop_lat': -35.38502, 'stop_lon': 149.071134, 'zone_id': '', 'stop_url': '', 'location_type': 0, 'wheelchair_boarding': 0}
{'stop_id': 1357, 'stop_code': '', 'stop_name': 'Summerland Cct after 2nd Lee-Steere Cr', 'stop_lat': -35.387624, 'stop_lon': 149.075039, 'zone_id': '', 'stop_url': '', 'location_type': 0, 'wheelchair_boarding': 0}
{'stop_id': 1358, 'stop_code': '', 'stop_name': 'Summerland Cct opp 1st Lee-Steere Cr', 'stop_lat': -35.387515, 'stop_lon': 149.074926, 'zone_id': '', 'stop_url': '', 'location_type': 0, 'wheelchair_boarding': 0}
{'stop_id': 1359, 'stop_code': '', 'stop_name': 'Langdon Av after Dyer Pl', 'stop_lat': -35.392409, 'stop_lon': 149.089645, 'zone_id': '', 'stop_url': '', 'location_type': 0, 'wheelchair_boarding': 0}
{'stop_id': 1360, 'stop_code': '', 'stop_name': 'Langdon Av after Macbain St', 'stop_lat': -35.392319, 'stop_lon': 149.089323, 'zone_id': '', 'stop_url': '', 'location_type': 0, 'wheelchair_boarding': 0}
{'stop_id': 1361, 'stop_code': '', 'stop_name': 'Langdon Av before Carr Cr', 'stop_lat': -35.392568, 'stop_lon': 149.093016, 'zone_id': '', 'stop_url': '', 'location_type': 0, 'wheelchair_boarding': 0}
{'stop_id': 1362, 'stop_code': '', 'stop_name': 'Langdon Av before Billson Pl', 'stop_lat': -35.392174, 'stop_lon': 149.093685, 'zone_id': '', 'stop_url': '', 'location_type': 0, 'wheelchair_boarding': 0}
{'stop_id': 1363, 'stop_code': '', 'stop_name': 'Wanniassa Hills PS Langdon Av', 'stop_lat': -35.392151, 'stop_lon': 149.095783, 'zone_id': '', 'stop_url': '', 'location_type': 0, 'wheelchair_boarding': 0}
{'stop_id': 1364, 'stop_code': '', 'stop_name': 'Langdon Av opp Wanniassa Hills PS', 'stop_lat': -35.392879, 'stop_lon': 149.09656, 'zone_id': '', 'stop_url': '', 'location_type': 0, 'wheelchair_boarding': 0}
{'stop_id': 1365, 'stop_code': '', 'stop_name': 'Langdon Av after Gaunson Cr', 'stop_lat': -35.396342, 'stop_lon': 149.096387, 'zone_id': '', 'stop_url': '', 'location_type': 0, 'wheelchair_boarding': 0}
{'stop_id': 1366, 'stop_code': '', 'stop_name': 'Langdon Av after Kirkton St', 'stop_lat': -35.396096, 'stop_lon': 149.096231, 'zone_id': '', 'stop_url': '', 'location_type': 0, 'wheelchair_boarding': 0}
{'stop_id': 1367, 'stop_code': '', 'stop_name': 'Langdon Av before 2nd Brunton St', 'stop_lat': -35.397873, 'stop_lon': 149.097417, 'zone_id': '', 'stop_url': '', 'location_type': 0, 'wheelchair_boarding': 0}
{'stop_id': 1368, 'stop_code': '', 'stop_name': 'Langdon Av before Longmore Cr', 'stop_lat': -35.397754, 'stop_lon': 149.097416, 'zone_id': '', 'stop_url': '', 'location_type': 0, 'wheelchair_boarding': 0}
{'stop_id': 1369, 'stop_code': '', 'stop_name': 'Langdon Av before Embling St', 'stop_lat': -35.40037, 'stop_lon': 149.097398, 'zone_id': '', 'stop_url': '', 'location_type': 0, 'wheelchair_boarding': 0}
{'stop_id': 1370, 'stop_code': '', 'stop_name': 'Langdon Av before Bussau Cl', 'stop_lat': -35.400017, 'stop_lon': 149.097735, 'zone_id': '', 'stop_url': '', 'location_type': 0, 'wheelchair_boarding': 0}
{'stop_id': 1371, 'stop_code': '', 'stop_name': 'Drakeford Dr after Mortimer Lewis Dr', 'stop_lat': -35.402577, 'stop_lon': 149.074423, 'zone_id': '', 'stop_url': '', 'location_type': 0, 'wheelchair_boarding': 0}
{'stop_id': 1372, 'stop_code': '', 'stop_name': 'Drakeford Dr before Taverner St', 'stop_lat': -35.401228, 'stop_lon': 149.074572, 'zone_id': '', 'stop_url': '', 'location_type': 0, 'wheelchair_boarding': 0}
{'stop_id': 1373, 'stop_code': '', 'stop_name': 'Drakeford Dr after Taverner St', 'stop_lat': -35.408028, 'stop_lon': 149.073539, 'zone_id': '', 'stop_url': '', 'location_type': 0, 'wheelchair_boarding': 0}
{'stop_id': 1374, 'stop_code': '', 'stop_name': 'Drakeford Dr after Soward Way', 'stop_lat': -35.408348, 'stop_lon': 149.073076, 'zone_id': '', 'stop_url': '', 'location_type': 0, 'wheelchair_boarding': 0}
{'stop_id': 1375, 'stop_code': '', 'stop_name': 'Athllon Dr before Reed St', 'stop_lat': -35.418158, 'stop_lon': 149.064405, 'zone_id': '', 'stop_url': '', 'location_type': 0, 'wheelchair_boarding': 0}
{'stop_id': 1376, 'stop_code': '', 'stop_name': 'Hindmarsh Dr after Ball St', 'stop_lat': -35.348742, 'stop_lon': 149.08783, 'zone_id': '', 'stop_url': '', 'location_type': 0, 'wheelchair_boarding': 0}
{'stop_id': 1377, 'stop_code': '', 'stop_name': 'Sainsbury St after Longmore Cr', 'stop_lat': -35.387071, 'stop_lon': 149.097437, 'zone_id': '', 'stop_url': '', 'location_type': 0, 'wheelchair_boarding': 0}
{'stop_id': 1378, 'stop_code': '', 'stop_name': 'Sainsbury St before Longmore Cr', 'stop_lat': -35.387174, 'stop_lon': 149.097611, 'zone_id': '', 'stop_url': '', 'location_type': 0, 'wheelchair_boarding': 0}
{'stop_id': 1400, 'stop_code': '', 'stop_name': 'Newman-Morris Cct opp 2nd Connibere Cr', 'stop_lat': -35.407481, 'stop_lon': 149.0757, 'zone_id': '', 'stop_url': '', 'location_type': 0, 'wheelchair_boarding': 0}
{'stop_id': 1401, 'stop_code': '', 'stop_name': 'Newman-Morris Cct before 1st Connibere Cr', 'stop_lat': -35.407218, 'stop_lon': 149.07569, 'zone_id': '', 'stop_url': '', 'location_type': 0, 'wheelchair_boarding': 0}
{'stop_id': 1402, 'stop_code': '', 'stop_name': 'Newman-Morris Cct before 1st Singleton Cr', 'stop_lat': -35.410852, 'stop_lon': 149.075058, 'zone_id': '', 'stop_url': '', 'location_type': 0, 'wheelchair_boarding': 0}
{'stop_id': 1403, 'stop_code': '', 'stop_name': '77 Newman-Morris Cct', 'stop_lat': -35.410988, 'stop_lon': 149.075168, 'zone_id': '', 'stop_url': '', 'location_type': 0, 'wheelchair_boarding': 0}
{'stop_id': 1404, 'stop_code': '', 'stop_name': 'Newman-Morris Cct after 1st Collocott Cr', 'stop_lat': -35.413455, 'stop_lon': 149.076071, 'zone_id': '', 'stop_url': '', 'location_type': 0, 'wheelchair_boarding': 0}
{'stop_id': 1405, 'stop_code': '', 'stop_name': 'Newman-Morris Cct opp 2nd Collocott Cr', 'stop_lat': -35.413535, 'stop_lon': 149.076332, 'zone_id': '', 'stop_url': '', 'location_type': 0, 'wheelchair_boarding': 0}
{'stop_id': 1406, 'stop_code': '', 'stop_name': 'Newman-Morris Cct before 2nd Cuthbertson Cr', 'stop_lat': -35.412838, 'stop_lon': 149.079376, 'zone_id': '', 'stop_url': '', 'location_type': 0, 'wheelchair_boarding': 0}
{'stop_id': 1407, 'stop_code': '', 'stop_name': 'Newman-Morris Cct before 2nd Maconochie Cr', 'stop_lat': -35.413294, 'stop_lon': 149.078626, 'zone_id': '', 'stop_url': '', 'location_type': 0, 'wheelchair_boarding': 0}
{'stop_id': 1408, 'stop_code': '', 'stop_name': 'Lakeside Leisure Centre Anketell St', 'stop_lat': -35.41215, 'stop_lon': 149.063186, 'zone_id': '', 'stop_url': '', 'location_type': 0, 'wheelchair_boarding': 0}
{'stop_id': 1409, 'stop_code': '', 'stop_name': 'Learmonth Dr after Vansittart Cr', 'stop_lat': -35.401969, 'stop_lon': 149.060866, 'zone_id': '', 'stop_url': '', 'location_type': 0, 'wheelchair_boarding': 0}
{'stop_id': 1410, 'stop_code': '', 'stop_name': 'Learmonth Dr opp Vansittart Cr', 'stop_lat': -35.402084, 'stop_lon': 149.060775, 'zone_id': '', 'stop_url': '', 'location_type': 0, 'wheelchair_boarding': 0}
{'stop_id': 1411, 'stop_code': '', 'stop_name': 'Vansittart Cr after 1st Stieglitz Cct', 'stop_lat': -35.400156, 'stop_lon': 149.062603, 'zone_id': '', 'stop_url': '', 'location_type': 0, 'wheelchair_boarding': 0}
{'stop_id': 1412, 'stop_code': '', 'stop_name': 'Vansittart Cr after 1st Ragless Cct', 'stop_lat': -35.400089, 'stop_lon': 149.062464, 'zone_id': '', 'stop_url': '', 'location_type': 0, 'wheelchair_boarding': 0}
{'stop_id': 1413, 'stop_code': '', 'stop_name': 'Learmonth Dr after Athllon Dr', 'stop_lat': -35.403181, 'stop_lon': 149.063357, 'zone_id': '', 'stop_url': '', 'location_type': 0, 'wheelchair_boarding': 0}
{'stop_id': 1414, 'stop_code': '', 'stop_name': 'Learmonth Dr before Athllon Dr', 'stop_lat': -35.403084, 'stop_lon': 149.06352, 'zone_id': '', 'stop_url': '', 'location_type': 0, 'wheelchair_boarding': 0}
{'stop_id': 1415, 'stop_code': '', 'stop_name': 'Vansittart Cr opp Pinkerton Cct', 'stop_lat': -35.397225, 'stop_lon': 149.064054, 'zone_id': '', 'stop_url': '', 'location_type': 0, 'wheelchair_boarding': 0}
{'stop_id': 1416, 'stop_code': '', 'stop_name': 'Vansittart Cr before Pinkerton Cct', 'stop_lat': -35.397462, 'stop_lon': 149.064247, 'zone_id': '', 'stop_url': '', 'location_type': 0, 'wheelchair_boarding': 0}
{'stop_id': 1417, 'stop_code': '', 'stop_name': 'Tuggeranong Pkwy after Sulwood Dr', 'stop_lat': -35.373045, 'stop_lon': 149.056882, 'zone_id': '', 'stop_url': '', 'location_type': 0, 'wheelchair_boarding': 0}
{'stop_id': 1418, 'stop_code': '', 'stop_name': 'Tuggeranong Pkwy before Sulwood Dr', 'stop_lat': -35.372604, 'stop_lon': 149.057409, 'zone_id': '', 'stop_url': '', 'location_type': 0, 'wheelchair_boarding': 0}
{'stop_id': 1435, 'stop_code': '', 'stop_name': 'Clive Steele Av before 2nd Priddle St', 'stop_lat': -35.410718, 'stop_lon': 149.100686, 'zone_id': '', 'stop_url': '', 'location_type': 0, 'wheelchair_boarding': 0}
{'stop_id': 1436, 'stop_code': '', 'stop_name': 'Clive Steele Av opp 1st Priddle St', 'stop_lat': -35.410892, 'stop_lon': 149.100719, 'zone_id': '', 'stop_url': '', 'location_type': 0, 'wheelchair_boarding': 0}
{'stop_id': 1437, 'stop_code': '', 'stop_name': 'Clive Steele Av opp 2nd Brain St', 'stop_lat': -35.41236, 'stop_lon': 149.100027, 'zone_id': '', 'stop_url': '', 'location_type': 0, 'wheelchair_boarding': 0}
{'stop_id': 1438, 'stop_code': '', 'stop_name': 'Clive Steele Av before 2nd Brain St', 'stop_lat': -35.412885, 'stop_lon': 149.099366, 'zone_id': '', 'stop_url': '', 'location_type': 0, 'wheelchair_boarding': 0}
{'stop_id': 1439, 'stop_code': '', 'stop_name': 'Clive Steele Av before 2nd Fraenkel St', 'stop_lat': -35.414112, 'stop_lon': 149.097043, 'zone_id': '', 'stop_url': '', 'location_type': 0, 'wheelchair_boarding': 0}
{'stop_id': 1440, 'stop_code': '', 'stop_name': 'Clive Steele Av before 2nd Coode St', 'stop_lat': -35.414441, 'stop_lon': 149.09674, 'zone_id': '', 'stop_url': '', 'location_type': 0, 'wheelchair_boarding': 0}
{'stop_id': 1441, 'stop_code': '', 'stop_name': 'Monash Shops Cockcroft Av', 'stop_lat': -35.417059, 'stop_lon': 149.098237, 'zone_id': '', 'stop_url': '', 'location_type': 0, 'wheelchair_boarding': 0}
{'stop_id': 1442, 'stop_code': '', 'stop_name': 'Cockcroft Av opp Monash Shops', 'stop_lat': -35.416742, 'stop_lon': 149.098198, 'zone_id': '', 'stop_url': '', 'location_type': 0, 'wheelchair_boarding': 0}
{'stop_id': 1443, 'stop_code': '', 'stop_name': 'Cockcroft Av before Kneeshaw St', 'stop_lat': -35.419885, 'stop_lon': 149.097304, 'zone_id': '', 'stop_url': '', 'location_type': 0, 'wheelchair_boarding': 0}
{'stop_id': 1444, 'stop_code': '', 'stop_name': 'Goodwin Aged Care Cockcroft Av', 'stop_lat': -35.419751, 'stop_lon': 149.097043, 'zone_id': '', 'stop_url': '', 'location_type': 0, 'wheelchair_boarding': 0}
{'stop_id': 1445, 'stop_code': '', 'stop_name': 'Charleston St after 2nd William Hudson Cr', 'stop_lat': -35.416281, 'stop_lon': 149.079178, 'zone_id': '', 'stop_url': '', 'location_type': 0, 'wheelchair_boarding': 0}
{'stop_id': 1446, 'stop_code': '', 'stop_name': 'Charleston St after Blakey Cl', 'stop_lat': -35.416263, 'stop_lon': 149.07936, 'zone_id': '', 'stop_url': '', 'location_type': 0, 'wheelchair_boarding': 0}
{'stop_id': 1447, 'stop_code': '', 'stop_name': 'Charleston St before 1st William Hudson Cr', 'stop_lat': -35.418192, 'stop_lon': 149.082438, 'zone_id': '', 'stop_url': '', 'location_type': 0, 'wheelchair_boarding': 0}
{'stop_id': 1448, 'stop_code': '', 'stop_name': 'Charleston St after Hallstrom Cct', 'stop_lat': -35.41809, 'stop_lon': 149.082409, 'zone_id': '', 'stop_url': '', 'location_type': 0, 'wheelchair_boarding': 0}
{'stop_id': 1449, 'stop_code': '', 'stop_name': 'Clive Steele Av before 1st Balsillie Cr', 'stop_lat': -35.416677, 'stop_lon': 149.086218, 'zone_id': '', 'stop_url': '', 'location_type': 0, 'wheelchair_boarding': 0}
{'stop_id': 1450, 'stop_code': '', 'stop_name': 'Clive Steele Av opp 2nd Balsillie Cr', 'stop_lat': -35.41661, 'stop_lon': 149.086533, 'zone_id': '', 'stop_url': '', 'location_type': 0, 'wheelchair_boarding': 0}
{'stop_id': 1451, 'stop_code': '', 'stop_name': 'Clive Steele Av before 2nd Balsillie Cr', 'stop_lat': -35.416239, 'stop_lon': 149.088005, 'zone_id': '', 'stop_url': '', 'location_type': 0, 'wheelchair_boarding': 0}
{'stop_id': 1452, 'stop_code': '', 'stop_name': 'Clive Steele Av before Harkness St', 'stop_lat': -35.416298, 'stop_lon': 149.088358, 'zone_id': '', 'stop_url': '', 'location_type': 0, 'wheelchair_boarding': 0}
{'stop_id': 1453, 'stop_code': '', 'stop_name': 'Monash PS Corlette Cr', 'stop_lat': -35.41534, 'stop_lon': 149.089569, 'zone_id': '', 'stop_url': '', 'location_type': 0, 'wheelchair_boarding': 0}
{'stop_id': 1454, 'stop_code': '', 'stop_name': 'Corlette Cr after Hebblewhite St', 'stop_lat': -35.414164, 'stop_lon': 149.087577, 'zone_id': '', 'stop_url': '', 'location_type': 0, 'wheelchair_boarding': 0}
{'stop_id': 1456, 'stop_code': '', 'stop_name': 'Corlette Cr opp Monash PS', 'stop_lat': -35.414787, 'stop_lon': 149.088975, 'zone_id': '', 'stop_url': '', 'location_type': 0, 'wheelchair_boarding': 0}
{'stop_id': 1457, 'stop_code': '', 'stop_name': 'Corlette Cr opp Hebblewhite St', 'stop_lat': -35.414229, 'stop_lon': 149.087272, 'zone_id': '', 'stop_url': '', 'location_type': 0, 'wheelchair_boarding': 0}
{'stop_id': 1458, 'stop_code': '', 'stop_name': 'Hebblewhite St after Forwood St', 'stop_lat': -35.411989, 'stop_lon': 149.087664, 'zone_id': '', 'stop_url': '', 'location_type': 0, 'wheelchair_boarding': 0}
{'stop_id': 1459, 'stop_code': '', 'stop_name': 'Hebblewhite St before Burnell Pl', 'stop_lat': -35.412096, 'stop_lon': 149.087407, 'zone_id': '', 'stop_url': '', 'location_type': 0, 'wheelchair_boarding': 0}
{'stop_id': 1460, 'stop_code': '', 'stop_name': 'Harricks Cr after 1st Michell St', 'stop_lat': -35.410713, 'stop_lon': 149.091178, 'zone_id': '', 'stop_url': '', 'location_type': 0, 'wheelchair_boarding': 0}
{'stop_id': 1461, 'stop_code': '', 'stop_name': 'Harricks Cr opp 1st Michell St', 'stop_lat': -35.410765, 'stop_lon': 149.090883, 'zone_id': '', 'stop_url': '', 'location_type': 0, 'wheelchair_boarding': 0}
{'stop_id': 1462, 'stop_code': '', 'stop_name': 'Harricks Cr after 1st Cracknell St', 'stop_lat': -35.408807, 'stop_lon': 149.092679, 'zone_id': '', 'stop_url': '', 'location_type': 0, 'wheelchair_boarding': 0}
{'stop_id': 1463, 'stop_code': '', 'stop_name': 'Harricks Cr opp 2nd Cracknell St', 'stop_lat': -35.408936, 'stop_lon': 149.092449, 'zone_id': '', 'stop_url': '', 'location_type': 0, 'wheelchair_boarding': 0}
{'stop_id': 1464, 'stop_code': '', 'stop_name': 'MacKinnon St opp MacKillop College', 'stop_lat': -35.405373, 'stop_lon': 149.089506, 'zone_id': '', 'stop_url': '', 'location_type': 0, 'wheelchair_boarding': 0}
{'stop_id': 1465, 'stop_code': '', 'stop_name': 'MacKillop College MacKinnon St SSO', 'stop_lat': -35.40532, 'stop_lon': 149.08965, 'zone_id': '', 'stop_url': '', 'location_type': 0, 'wheelchair_boarding': 0}
{'stop_id': 1466, 'stop_code': '', 'stop_name': 'Wheeler Cr after Sternberg Cr', 'stop_lat': -35.402337, 'stop_lon': 149.091783, 'zone_id': '', 'stop_url': '', 'location_type': 0, 'wheelchair_boarding': 0}
{'stop_id': 1467, 'stop_code': '', 'stop_name': 'Wheeler Cr before Hanna St', 'stop_lat': -35.400526, 'stop_lon': 149.089227, 'zone_id': '', 'stop_url': '', 'location_type': 0, 'wheelchair_boarding': 0}
{'stop_id': 1468, 'stop_code': '', 'stop_name': 'Wheeler Cr before Sternberg Cr', 'stop_lat': -35.402094, 'stop_lon': 149.091797, 'zone_id': '', 'stop_url': '', 'location_type': 0, 'wheelchair_boarding': 0}
{'stop_id': 1469, 'stop_code': '', 'stop_name': 'Wheeler Cr opp Hanna St', 'stop_lat': -35.400409, 'stop_lon': 149.089292, 'zone_id': '', 'stop_url': '', 'location_type': 0, 'wheelchair_boarding': 0}
{'stop_id': 1470, 'stop_code': '', 'stop_name': 'Wheeler Cr after Guthridge Cr', 'stop_lat': -35.398153, 'stop_lon': 149.088372, 'zone_id': '', 'stop_url': '', 'location_type': 0, 'wheelchair_boarding': 0}
{'stop_id': 1471, 'stop_code': '', 'stop_name': 'Wheeler Cr after Kirkton St', 'stop_lat': -35.398117, 'stop_lon': 149.088481, 'zone_id': '', 'stop_url': '', 'location_type': 0, 'wheelchair_boarding': 0}
{'stop_id': 1472, 'stop_code': '', 'stop_name': 'Wanniassa HS Wheeler Cr', 'stop_lat': -35.394803, 'stop_lon': 149.086693, 'zone_id': '', 'stop_url': '', 'location_type': 0, 'wheelchair_boarding': 0}
{'stop_id': 1473, 'stop_code': '', 'stop_name': 'Wheeler Cr opp Wanniassa HS', 'stop_lat': -35.394653, 'stop_lon': 149.086594, 'zone_id': '', 'stop_url': '', 'location_type': 0, 'wheelchair_boarding': 0}
{'stop_id': 1474, 'stop_code': '', 'stop_name': 'Kirkton St before Greeves St', 'stop_lat': -35.397468, 'stop_lon': 149.089956, 'zone_id': '', 'stop_url': '', 'location_type': 0, 'wheelchair_boarding': 0}
{'stop_id': 1475, 'stop_code': '', 'stop_name': 'Kirkton St before Wheeler Cr', 'stop_lat': -35.397537, 'stop_lon': 149.09017, 'zone_id': '', 'stop_url': '', 'location_type': 0, 'wheelchair_boarding': 0}
{'stop_id': 1476, 'stop_code': '', 'stop_name': 'Kirkton St after 2nd Holden Cr', 'stop_lat': -35.397269, 'stop_lon': 149.094785, 'zone_id': '', 'stop_url': '', 'location_type': 0, 'wheelchair_boarding': 0}
{'stop_id': 1477, 'stop_code': '', 'stop_name': 'Kirkton St after Embling St', 'stop_lat': -35.397309, 'stop_lon': 149.094195, 'zone_id': '', 'stop_url': '', 'location_type': 0, 'wheelchair_boarding': 0}
{'stop_id': 1478, 'stop_code': '', 'stop_name': 'Gaunson Cr at Harbison Cr', 'stop_lat': -35.395237, 'stop_lon': 149.098434, 'zone_id': '', 'stop_url': '', 'location_type': 0, 'wheelchair_boarding': 0}
{'stop_id': 1479, 'stop_code': '', 'stop_name': 'Gaunson Cr opp Harbison Cr', 'stop_lat': -35.395123, 'stop_lon': 149.098491, 'zone_id': '', 'stop_url': '', 'location_type': 0, 'wheelchair_boarding': 0}
{'stop_id': 1480, 'stop_code': '', 'stop_name': 'Gaunson Cr after 1st Sullivan Cr', 'stop_lat': -35.393342, 'stop_lon': 149.099628, 'zone_id': '', 'stop_url': '', 'location_type': 0, 'wheelchair_boarding': 0}
{'stop_id': 1481, 'stop_code': '', 'stop_name': 'Gaunson Cr opp 2nd Sullivan Cr', 'stop_lat': -35.392723, 'stop_lon': 149.09937, 'zone_id': '', 'stop_url': '', 'location_type': 0, 'wheelchair_boarding': 0}
{'stop_id': 1482, 'stop_code': '', 'stop_name': 'Gaunson Cr after Longmore Cr', 'stop_lat': -35.390588, 'stop_lon': 149.098876, 'zone_id': '', 'stop_url': '', 'location_type': 0, 'wheelchair_boarding': 0}
{'stop_id': 1483, 'stop_code': '', 'stop_name': 'Gaunson Cr before Longmore Cr', 'stop_lat': -35.390382, 'stop_lon': 149.098851, 'zone_id': '', 'stop_url': '', 'location_type': 0, 'wheelchair_boarding': 0}
{'stop_id': 1484, 'stop_code': '', 'stop_name': 'Longmore Cr after Pyke Pl', 'stop_lat': -35.388087, 'stop_lon': 149.097982, 'zone_id': '', 'stop_url': '', 'location_type': 0, 'wheelchair_boarding': 0}
{'stop_id': 1485, 'stop_code': '', 'stop_name': 'Longmore Cr before Sainsbury St', 'stop_lat': -35.388494, 'stop_lon': 149.098303, 'zone_id': '', 'stop_url': '', 'location_type': 0, 'wheelchair_boarding': 0}
{'stop_id': 1486, 'stop_code': '', 'stop_name': 'Clift Cr after Ashley Dr', 'stop_lat': -35.424738, 'stop_lon': 149.104019, 'zone_id': '', 'stop_url': '', 'location_type': 0, 'wheelchair_boarding': 0}
{'stop_id': 1487, 'stop_code': '', 'stop_name': 'Clift Cr before Ashley Dr', 'stop_lat': -35.424897, 'stop_lon': 149.104043, 'zone_id': '', 'stop_url': '', 'location_type': 0, 'wheelchair_boarding': 0}
{'stop_id': 1488, 'stop_code': '', 'stop_name': '29 Clift Cr', 'stop_lat': -35.42628, 'stop_lon': 149.107056, 'zone_id': '', 'stop_url': '', 'location_type': 0, 'wheelchair_boarding': 0}
{'stop_id': 1489, 'stop_code': '', 'stop_name': 'Clift Cr opp 29', 'stop_lat': -35.426372, 'stop_lon': 149.107042, 'zone_id': '', 'stop_url': '', 'location_type': 0, 'wheelchair_boarding': 0}
{'stop_id': 1490, 'stop_code': '', 'stop_name': 'Clift Cr before 2nd Kiddle Cr', 'stop_lat': -35.427562, 'stop_lon': 149.109589, 'zone_id': '', 'stop_url': '', 'location_type': 0, 'wheelchair_boarding': 0}
{'stop_id': 1491, 'stop_code': '', 'stop_name': 'Clift Cr opp 1st Kiddle Cr', 'stop_lat': -35.427624, 'stop_lon': 149.10978, 'zone_id': '', 'stop_url': '', 'location_type': 0, 'wheelchair_boarding': 0}
{'stop_id': 1492, 'stop_code': '', 'stop_name': 'Clift Cr before Heagney Cr', 'stop_lat': -35.426282, 'stop_lon': 149.112288, 'zone_id': '', 'stop_url': '', 'location_type': 0, 'wheelchair_boarding': 0}
{'stop_id': 1493, 'stop_code': '', 'stop_name': 'Clift Cr opp Heagney Cr', 'stop_lat': -35.426308, 'stop_lon': 149.112478, 'zone_id': '', 'stop_url': '', 'location_type': 0, 'wheelchair_boarding': 0}
{'stop_id': 1494, 'stop_code': '', 'stop_name': 'Heagney Cr before Beattie Cr', 'stop_lat': -35.425383, 'stop_lon': 149.114077, 'zone_id': '', 'stop_url': '', 'location_type': 0, 'wheelchair_boarding': 0}
{'stop_id': 1495, 'stop_code': '', 'stop_name': 'Heagney Cr before 2nd Mclorinan St', 'stop_lat': -35.425238, 'stop_lon': 149.114285, 'zone_id': '', 'stop_url': '', 'location_type': 0, 'wheelchair_boarding': 0}
{'stop_id': 1496, 'stop_code': '', 'stop_name': 'Beattie Cr before 2nd McBurney Cr', 'stop_lat': -35.422762, 'stop_lon': 149.112019, 'zone_id': '', 'stop_url': '', 'location_type': 0, 'wheelchair_boarding': 0}
{'stop_id': 1497, 'stop_code': '', 'stop_name': 'Beattie Cr before Swanton St', 'stop_lat': -35.423058, 'stop_lon': 149.112178, 'zone_id': '', 'stop_url': '', 'location_type': 0, 'wheelchair_boarding': 0}
{'stop_id': 1498, 'stop_code': '', 'stop_name': 'Beattie Cr after Hemmings Cr', 'stop_lat': -35.420984, 'stop_lon': 149.113621, 'zone_id': '', 'stop_url': '', 'location_type': 0, 'wheelchair_boarding': 0}
{'stop_id': 1499, 'stop_code': '', 'stop_name': 'Beattie Cr opp Hemmings Cr', 'stop_lat': -35.420965, 'stop_lon': 149.113865, 'zone_id': '', 'stop_url': '', 'location_type': 0, 'wheelchair_boarding': 0}
{'stop_id': 1500, 'stop_code': '', 'stop_name': 'Beattie Cr after Goldstein Cr', 'stop_lat': -35.418313, 'stop_lon': 149.115569, 'zone_id': '', 'stop_url': '', 'location_type': 0, 'wheelchair_boarding': 0}
{'stop_id': 1501, 'stop_code': '', 'stop_name': 'Beattie Cr after 2nd Longman St', 'stop_lat': -35.418601, 'stop_lon': 149.115219, 'zone_id': '', 'stop_url': '', 'location_type': 0, 'wheelchair_boarding': 0}
{'stop_id': 1504, 'stop_code': '', 'stop_name': 'Gowrie Shops Castleton Cr', 'stop_lat': -35.41387, 'stop_lon': 149.109327, 'zone_id': '', 'stop_url': '', 'location_type': 0, 'wheelchair_boarding': 0}
{'stop_id': 1505, 'stop_code': '', 'stop_name': 'Castleton Cr opp Gowrie Shops', 'stop_lat': -35.414013, 'stop_lon': 149.109397, 'zone_id': '', 'stop_url': '', 'location_type': 0, 'wheelchair_boarding': 0}
{'stop_id': 1506, 'stop_code': '', 'stop_name': 'Castleton Cr after 2nd Wheatley St', 'stop_lat': -35.412066, 'stop_lon': 149.105807, 'zone_id': '', 'stop_url': '', 'location_type': 0, 'wheelchair_boarding': 0}
{'stop_id': 1507, 'stop_code': '', 'stop_name': 'Castleton Cr opp 1st Wheatley St', 'stop_lat': -35.411981, 'stop_lon': 149.105556, 'zone_id': '', 'stop_url': '', 'location_type': 0, 'wheelchair_boarding': 0}
{'stop_id': 1508, 'stop_code': '', 'stop_name': 'Castleton Cr before Easterbrook Pl', 'stop_lat': -35.409963, 'stop_lon': 149.104886, 'zone_id': '', 'stop_url': '', 'location_type': 0, 'wheelchair_boarding': 0}
{'stop_id': 1509, 'stop_code': '', 'stop_name': 'Castleton Cr opp Easterbrook Pl', 'stop_lat': -35.41009, 'stop_lon': 149.104967, 'zone_id': '', 'stop_url': '', 'location_type': 0, 'wheelchair_boarding': 0}
{'stop_id': 1510, 'stop_code': '', 'stop_name': 'Castleton Cr after Farcomb Pl', 'stop_lat': -35.407349, 'stop_lon': 149.106466, 'zone_id': '', 'stop_url': '', 'location_type': 0, 'wheelchair_boarding': 0}
{'stop_id': 1511, 'stop_code': '', 'stop_name': 'Castleton Cr after Middleton Cct', 'stop_lat': -35.407182, 'stop_lon': 149.106505, 'zone_id': '', 'stop_url': '', 'location_type': 0, 'wheelchair_boarding': 0}
{'stop_id': 1512, 'stop_code': '', 'stop_name': 'Castleton Cr after Peeler Pl', 'stop_lat': -35.406056, 'stop_lon': 149.111056, 'zone_id': '', 'stop_url': '', 'location_type': 0, 'wheelchair_boarding': 0}
{'stop_id': 1513, 'stop_code': '', 'stop_name': 'Castleton Cr before Wray Pl', 'stop_lat': -35.406197, 'stop_lon': 149.111205, 'zone_id': '', 'stop_url': '', 'location_type': 0, 'wheelchair_boarding': 0}
{'stop_id': 1529, 'stop_code': '', 'stop_name': 'Bugden Av after Mactier Pl', 'stop_lat': -35.414471, 'stop_lon': 149.104533, 'zone_id': '', 'stop_url': '', 'location_type': 0, 'wheelchair_boarding': 0}
{'stop_id': 1530, 'stop_code': '', 'stop_name': 'Bugden Av opp Denehy Pl', 'stop_lat': -35.414685, 'stop_lon': 149.104606, 'zone_id': '', 'stop_url': '', 'location_type': 0, 'wheelchair_boarding': 0}
{'stop_id': 1531, 'stop_code': '', 'stop_name': 'Bugden Av after 1st Dalziel St', 'stop_lat': -35.417136, 'stop_lon': 149.104855, 'zone_id': '', 'stop_url': '', 'location_type': 0, 'wheelchair_boarding': 0}
{'stop_id': 1532, 'stop_code': '', 'stop_name': 'Bugden Av after 1st Stacy St', 'stop_lat': -35.416935, 'stop_lon': 149.104787, 'zone_id': '', 'stop_url': '', 'location_type': 0, 'wheelchair_boarding': 0}
{'stop_id': 1533, 'stop_code': '', 'stop_name': 'Bugden Av after 2nd Dalziel St', 'stop_lat': -35.418079, 'stop_lon': 149.107385, 'zone_id': '', 'stop_url': '', 'location_type': 0, 'wheelchair_boarding': 0}
{'stop_id': 1534, 'stop_code': '', 'stop_name': 'Bugden Av before 1st Ingram St', 'stop_lat': -35.417955, 'stop_lon': 149.107856, 'zone_id': '', 'stop_url': '', 'location_type': 0, 'wheelchair_boarding': 0}
{'stop_id': 1535, 'stop_code': '', 'stop_name': 'Bugden Av after Beardsmore Pl', 'stop_lat': -35.415811, 'stop_lon': 149.10984, 'zone_id': '', 'stop_url': '', 'location_type': 0, 'wheelchair_boarding': 0}
{'stop_id': 1536, 'stop_code': '', 'stop_name': 'Bugden Av before 2nd Galleghan Cct', 'stop_lat': -35.415728, 'stop_lon': 149.110049, 'zone_id': '', 'stop_url': '', 'location_type': 0, 'wheelchair_boarding': 0}
{'stop_id': 1537, 'stop_code': '', 'stop_name': 'Norriss St after 1st Woodburn St', 'stop_lat': -35.416852, 'stop_lon': 149.117772, 'zone_id': '', 'stop_url': '', 'location_type': 0, 'wheelchair_boarding': 0}
{'stop_id': 1538, 'stop_code': '', 'stop_name': 'Norriss St opp 2nd Woodburn St', 'stop_lat': -35.416912, 'stop_lon': 149.117961, 'zone_id': '', 'stop_url': '', 'location_type': 0, 'wheelchair_boarding': 0}
{'stop_id': 1539, 'stop_code': '', 'stop_name': 'Norriss St opp Caroline Chisholm Senior School', 'stop_lat': -35.416431, 'stop_lon': 149.121032, 'zone_id': '', 'stop_url': '', 'location_type': 0, 'wheelchair_boarding': 0}
{'stop_id': 1540, 'stop_code': '', 'stop_name': 'Caroline Chisholm Senior School Norriss St', 'stop_lat': -35.416575, 'stop_lon': 149.120836, 'zone_id': '', 'stop_url': '', 'location_type': 0, 'wheelchair_boarding': 0}
{'stop_id': 1542, 'stop_code': '', 'stop_name': 'Hambidge Cr before Proctor St', 'stop_lat': -35.416041, 'stop_lon': 149.130189, 'zone_id': '', 'stop_url': '', 'location_type': 0, 'wheelchair_boarding': 0}
{'stop_id': 1543, 'stop_code': '', 'stop_name': 'Hambidge Cr opp 64', 'stop_lat': -35.418268, 'stop_lon': 149.127212, 'zone_id': '', 'stop_url': '', 'location_type': 0, 'wheelchair_boarding': 0}
{'stop_id': 1544, 'stop_code': '', 'stop_name': '64 Hambidge Cr', 'stop_lat': -35.418097, 'stop_lon': 149.127335, 'zone_id': '', 'stop_url': '', 'location_type': 0, 'wheelchair_boarding': 0}
{'stop_id': 1545, 'stop_code': '', 'stop_name': 'Hambidge Cr after 1st Alice Jackson Cr', 'stop_lat': -35.416602, 'stop_lon': 149.129855, 'zone_id': '', 'stop_url': '', 'location_type': 0, 'wheelchair_boarding': 0}
{'stop_id': 1546, 'stop_code': '', 'stop_name': 'Baskerville St after Hambidge Cr', 'stop_lat': -35.41953, 'stop_lon': 149.125425, 'zone_id': '', 'stop_url': '', 'location_type': 0, 'wheelchair_boarding': 0}
{'stop_id': 1547, 'stop_code': '', 'stop_name': 'Baskerville St before Hambidge Cr', 'stop_lat': -35.419584, 'stop_lon': 149.125331, 'zone_id': '', 'stop_url': '', 'location_type': 0, 'wheelchair_boarding': 0}
{'stop_id': 1548, 'stop_code': '', 'stop_name': 'Baskerville St before 1st Laughton St', 'stop_lat': -35.422051, 'stop_lon': 149.12439, 'zone_id': '', 'stop_url': '', 'location_type': 0, 'wheelchair_boarding': 0}
{'stop_id': 1549, 'stop_code': '', 'stop_name': 'Baskerville St opp 2nd Laughton St', 'stop_lat': -35.421961, 'stop_lon': 149.124524, 'zone_id': '', 'stop_url': '', 'location_type': 0, 'wheelchair_boarding': 0}
{'stop_id': 1550, 'stop_code': '', 'stop_name': 'Heagney Cr after Alston St', 'stop_lat': -35.424281, 'stop_lon': 149.123477, 'zone_id': '', 'stop_url': '', 'location_type': 0, 'wheelchair_boarding': 0}
{'stop_id': 1551, 'stop_code': '', 'stop_name': 'Heagney Cr after 1st Muntz St', 'stop_lat': -35.424407, 'stop_lon': 149.123683, 'zone_id': '', 'stop_url': '', 'location_type': 0, 'wheelchair_boarding': 0}
{'stop_id': 1552, 'stop_code': '', 'stop_name': 'Heagney Cr after Goldstein Cr', 'stop_lat': -35.424252, 'stop_lon': 149.121332, 'zone_id': '', 'stop_url': '', 'location_type': 0, 'wheelchair_boarding': 0}
{'stop_id': 1553, 'stop_code': '', 'stop_name': 'Heagney Cr before 1st Moffin St', 'stop_lat': -35.424343, 'stop_lon': 149.121259, 'zone_id': '', 'stop_url': '', 'location_type': 0, 'wheelchair_boarding': 0}
{'stop_id': 1554, 'stop_code': '', 'stop_name': 'Heagney Cr after 2nd Mofflin St', 'stop_lat': -35.424314, 'stop_lon': 149.117442, 'zone_id': '', 'stop_url': '', 'location_type': 0, 'wheelchair_boarding': 0}
{'stop_id': 1555, 'stop_code': '', 'stop_name': 'Heagney Cr opp 2nd McLorinan St', 'stop_lat': -35.4242, 'stop_lon': 149.117209, 'zone_id': '', 'stop_url': '', 'location_type': 0, 'wheelchair_boarding': 0}
{'stop_id': 1556, 'stop_code': '', 'stop_name': 'Richardson Shops Clift Cr', 'stop_lat': -35.427259, 'stop_lon': 149.115792, 'zone_id': '', 'stop_url': '', 'location_type': 0, 'wheelchair_boarding': 0}
{'stop_id': 1557, 'stop_code': '', 'stop_name': 'Clift Cr opp Meeson St', 'stop_lat': -35.428668, 'stop_lon': 149.118497, 'zone_id': '', 'stop_url': '', 'location_type': 0, 'wheelchair_boarding': 0}
{'stop_id': 1558, 'stop_code': '', 'stop_name': 'Clift Cr before Meeson St', 'stop_lat': -35.428604, 'stop_lon': 149.11858, 'zone_id': '', 'stop_url': '', 'location_type': 0, 'wheelchair_boarding': 0}
{'stop_id': 1559, 'stop_code': '', 'stop_name': 'Clift Cr opp Richardson Shops', 'stop_lat': -35.427334, 'stop_lon': 149.116004, 'zone_id': '', 'stop_url': '', 'location_type': 0, 'wheelchair_boarding': 0}
{'stop_id': 1560, 'stop_code': '', 'stop_name': 'Louisa Lawson Cr before Gellatly Pl', 'stop_lat': -35.417691, 'stop_lon': 149.137217, 'zone_id': '', 'stop_url': '', 'location_type': 0, 'wheelchair_boarding': 0}
{'stop_id': 1561, 'stop_code': '', 'stop_name': 'Louisa Lawson Cr after 1st May Maxwell Cr', 'stop_lat': -35.4176, 'stop_lon': 149.13726, 'zone_id': '', 'stop_url': '', 'location_type': 0, 'wheelchair_boarding': 0}
{'stop_id': 1562, 'stop_code': '', 'stop_name': 'Louisa Lawson Cr after Fenston Pl', 'stop_lat': -35.416144, 'stop_lon': 149.139438, 'zone_id': '', 'stop_url': '', 'location_type': 0, 'wheelchair_boarding': 0}
{'stop_id': 1563, 'stop_code': '', 'stop_name': 'Louisa Lawson Cr opp Fenston Pl', 'stop_lat': -35.416088, 'stop_lon': 149.139358, 'zone_id': '', 'stop_url': '', 'location_type': 0, 'wheelchair_boarding': 0}
{'stop_id': 1564, 'stop_code': '', 'stop_name': 'Louisa Lawson Cr before 1st Aronson Cr', 'stop_lat': -35.412316, 'stop_lon': 149.137509, 'zone_id': '', 'stop_url': '', 'location_type': 0, 'wheelchair_boarding': 0}
{'stop_id': 1565, 'stop_code': '', 'stop_name': 'Louisa Lawson Cr after 2nd Willoughby Cr', 'stop_lat': -35.412259, 'stop_lon': 149.1374, 'zone_id': '', 'stop_url': '', 'location_type': 0, 'wheelchair_boarding': 0}
{'stop_id': 1566, 'stop_code': '', 'stop_name': 'Louisa Lawson Cr before 2nd Willoughby Cr', 'stop_lat': -35.412511, 'stop_lon': 149.135275, 'zone_id': '', 'stop_url': '', 'location_type': 0, 'wheelchair_boarding': 0}
{'stop_id': 1567, 'stop_code': '', 'stop_name': 'Louisa Lawson Cr after 1st Aronson Cr', 'stop_lat': -35.412578, 'stop_lon': 149.135104, 'zone_id': '', 'stop_url': '', 'location_type': 0, 'wheelchair_boarding': 0}
{'stop_id': 1568, 'stop_code': '', 'stop_name': 'Louisa Lawson Cr before 2nd Aronson Cr', 'stop_lat': -35.413875, 'stop_lon': 149.133002, 'zone_id': '', 'stop_url': '', 'location_type': 0, 'wheelchair_boarding': 0}
{'stop_id': 1569, 'stop_code': '', 'stop_name': 'Louisa Lawson Cr before Litchfield Pl', 'stop_lat': -35.413853, 'stop_lon': 149.132904, 'zone_id': '', 'stop_url': '', 'location_type': 0, 'wheelchair_boarding': 0}
{'stop_id': 1576, 'stop_code': '', 'stop_name': 'Duggan St after Outtrim Av', 'stop_lat': -35.436524, 'stop_lon': 149.097743, 'zone_id': '', 'stop_url': '', 'location_type': 0, 'wheelchair_boarding': 0}
{'stop_id': 1577, 'stop_code': '', 'stop_name': 'Duggan St before Outtrim Av', 'stop_lat': -35.436485, 'stop_lon': 149.097607, 'zone_id': '', 'stop_url': '', 'location_type': 0, 'wheelchair_boarding': 0}
{'stop_id': 1590, 'stop_code': '', 'stop_name': 'Clive Steele Av before 2nd Alabaster St SSO', 'stop_lat': -35.414957, 'stop_lon': 149.093896, 'zone_id': '', 'stop_url': '', 'location_type': 0, 'wheelchair_boarding': 0}
{'stop_id': 1591, 'stop_code': '', 'stop_name': 'Clive Steele Av after Barraclough Cr SSO', 'stop_lat': -35.415047, 'stop_lon': 149.094128, 'zone_id': '', 'stop_url': '', 'location_type': 0, 'wheelchair_boarding': 0}
{'stop_id': 1592, 'stop_code': '', 'stop_name': 'Clive Steele Av after Haigh Pl SSO', 'stop_lat': -35.415547, 'stop_lon': 149.091381, 'zone_id': '', 'stop_url': '', 'location_type': 0, 'wheelchair_boarding': 0}
{'stop_id': 1593, 'stop_code': '', 'stop_name': 'Clive Steele Av before Kenyon Cct SSO', 'stop_lat': -35.415722, 'stop_lon': 149.091205, 'zone_id': '', 'stop_url': '', 'location_type': 0, 'wheelchair_boarding': 0}
{'stop_id': 1596, 'stop_code': '', 'stop_name': 'Newman-Morris Cct before Taverner St', 'stop_lat': -35.404247, 'stop_lon': 149.077479, 'zone_id': '', 'stop_url': '', 'location_type': 0, 'wheelchair_boarding': 0}
{'stop_id': 1597, 'stop_code': '', 'stop_name': 'Newman-Morris Cct after Taverner St', 'stop_lat': -35.404262, 'stop_lon': 149.077609, 'zone_id': '', 'stop_url': '', 'location_type': 0, 'wheelchair_boarding': 0}
{'stop_id': 1599, 'stop_code': '', 'stop_name': 'McBryde Cr opp Trinity Christian School', 'stop_lat': -35.407416, 'stop_lon': 149.087085, 'zone_id': '', 'stop_url': '', 'location_type': 0, 'wheelchair_boarding': 0}
{'stop_id': 1600, 'stop_code': '', 'stop_name': 'Trinity Christian School McBryde Cr', 'stop_lat': -35.407527, 'stop_lon': 149.086841, 'zone_id': '', 'stop_url': '', 'location_type': 0, 'wheelchair_boarding': 0}
{'stop_id': 1601, 'stop_code': '', 'stop_name': 'Ashley Dr before Michaelis Ct', 'stop_lat': -35.403464, 'stop_lon': 149.101639, 'zone_id': '', 'stop_url': '', 'location_type': 0, 'wheelchair_boarding': 0}
{'stop_id': 1606, 'stop_code': '', 'stop_name': 'Calwell HS Casey Cr', 'stop_lat': -35.441239, 'stop_lon': 149.116884, 'zone_id': '', 'stop_url': '', 'location_type': 0, 'wheelchair_boarding': 0}
{'stop_id': 1607, 'stop_code': '', 'stop_name': 'Caroline Chisholm Senior School Hambidge Cr SSO', 'stop_lat': -35.418419, 'stop_lon': 149.121692, 'zone_id': '', 'stop_url': '', 'location_type': 0, 'wheelchair_boarding': 0}
{'stop_id': 1608, 'stop_code': '', 'stop_name': 'St Clares College McMillan Cr SSO', 'stop_lat': -35.323219, 'stop_lon': 149.146183, 'zone_id': '', 'stop_url': '', 'location_type': 0, 'wheelchair_boarding': 0}
{'stop_id': 1609, 'stop_code': '', 'stop_name': 'St Edmunds College McMillan Cr SSO', 'stop_lat': -35.323215, 'stop_lon': 149.146033, 'zone_id': '', 'stop_url': '', 'location_type': 0, 'wheelchair_boarding': 0}
{'stop_id': 1613, 'stop_code': '', 'stop_name': 'Marist College School Grounds SSO', 'stop_lat': -35.360094, 'stop_lon': 149.088237, 'zone_id': '', 'stop_url': '', 'location_type': 0, 'wheelchair_boarding': 0}
{'stop_id': 1614, 'stop_code': '', 'stop_name': 'Melrose HS Marr St SSO', 'stop_lat': -35.363257, 'stop_lon': 149.088256, 'zone_id': '', 'stop_url': '', 'location_type': 0, 'wheelchair_boarding': 0}
{'stop_id': 1615, 'stop_code': '', 'stop_name': 'Holy Family PS Castleton Cr', 'stop_lat': -35.410953, 'stop_lon': 149.115701, 'zone_id': '', 'stop_url': '', 'location_type': 0, 'wheelchair_boarding': 0}
{'stop_id': 1620, 'stop_code': '', 'stop_name': "St Anthony's PS School Grounds SSO", 'stop_lat': -35.394247, 'stop_lon': 149.080478, 'zone_id': '', 'stop_url': '', 'location_type': 0, 'wheelchair_boarding': 0}
{'stop_id': 1630, 'stop_code': '', 'stop_name': 'Laurens St before McBryde Cr', 'stop_lat': -35.406727, 'stop_lon': 149.08429, 'zone_id': '', 'stop_url': '', 'location_type': 0, 'wheelchair_boarding': 0}
{'stop_id': 1631, 'stop_code': '', 'stop_name': 'Laurens St after McBryde Cr', 'stop_lat': -35.40687, 'stop_lon': 149.084323, 'zone_id': '', 'stop_url': '', 'location_type': 0, 'wheelchair_boarding': 0}
{'stop_id': 1637, 'stop_code': '', 'stop_name': 'Weston Creek Terminus Hindmarsh Dr', 'stop_lat': -35.343932, 'stop_lon': 149.028141, 'zone_id': '', 'stop_url': '', 'location_type': 0, 'wheelchair_boarding': 0}
{'stop_id': 1638, 'stop_code': '', 'stop_name': 'Forsythe St before Pockett Av', 'stop_lat': -35.47449, 'stop_lon': 149.094704, 'zone_id': '', 'stop_url': '', 'location_type': 0, 'wheelchair_boarding': 0}
{'stop_id': 1639, 'stop_code': '', 'stop_name': 'Forsythe St after Pockett Av', 'stop_lat': -35.474525, 'stop_lon': 149.094926, 'zone_id': '', 'stop_url': '', 'location_type': 0, 'wheelchair_boarding': 0}
{'stop_id': 1640, 'stop_code': '', 'stop_name': 'Mt Vernon Dr after Kambah Pool Rd SSO', 'stop_lat': -35.388964, 'stop_lon': 149.032512, 'zone_id': '', 'stop_url': '', 'location_type': 0, 'wheelchair_boarding': 0}
{'stop_id': 1641, 'stop_code': '', 'stop_name': 'Lanyon Marketplace Terminus North', 'stop_lat': -35.45616, 'stop_lon': 149.092291, 'zone_id': '', 'stop_url': '', 'location_type': 0, 'wheelchair_boarding': 0}
{'stop_id': 1642, 'stop_code': '', 'stop_name': 'Barraclough Cr opp Goodwin Village', 'stop_lat': -35.416332, 'stop_lon': 149.096259, 'zone_id': '', 'stop_url': '', 'location_type': 0, 'wheelchair_boarding': 0}
{'stop_id': 1649, 'stop_code': '', 'stop_name': 'Lawrence Wackett Cr before Tharwa Dr', 'stop_lat': -35.442646, 'stop_lon': 149.122636, 'zone_id': '', 'stop_url': '', 'location_type': 0, 'wheelchair_boarding': 0}
{'stop_id': 1650, 'stop_code': '', 'stop_name': 'Lawrence Wackett Cr after Scantlebury Cr', 'stop_lat': -35.442652, 'stop_lon': 149.122792, 'zone_id': '', 'stop_url': '', 'location_type': 0, 'wheelchair_boarding': 0}
